school_code,school_name,local_authority,sector,governance,pupils,longitude,latitude
6662156,YSGOL GOLWG PEN Y FAN,Powys,Primary,Community,300.0,-3.3900193005581216,51.949679380587355
6672374,YSGOL DYFFRYN AERON,Ceredigion,Primary,Community,180.0,-4.1505815959852255,52.1794277223234
6682398,Ysgol Bro Penfro,Pembrokeshire,Primary,Community,149.0,-4.926974126033064,51.68296980159972
6712242,YGG Tregeles,Neath Port Talbot,Primary,Community,43.0,-3.834324479860983,51.66150725508355
6735501,COWBRIDGE SCHOOL,The Vale of Glamorgan,Middle,Community,1559.0,-3.4375749821250072,51.46335761558045
6742388,Ysgol Gynradd Gymraeg Awel Taf,Rhondda Cynon Taf,Primary,Community,346.0,-3.310188411054393,51.586420773719816
6745505,Ysgol Afon Wen,Rhondda Cynon Taf,Middle,Community,1165.0,-3.3066519760633906,51.578305662819986
6745506,Ysgol Bro Taf,Rhondda Cynon Taf,Middle,Community,902.0,-3.3219639834434584,51.624532100290175
6792325,Ysgol Gymraeg Trefynwy,Monmouthshire,Primary,Community,21.0,-2.7267969316161045,51.81033425687628
6795500,King Henry VIII 319,Monmouthshire,Middle,Community,1310.0,-3.0178631420974873,51.83165694574453
6812333,Ysgol Gynradd Groes Wen,Cardiff,Primary,Community,124.0,-3.2536034518064465,51.50362819948168
6607011,Canolfan Addysg y Bont,Isle of Anglesey,Special,Not Applicable,123.0,-4.321524632472204,53.257225344832236
6617002,Ysgol Pendalar,Gwynedd,Special,Not Applicable,115.0,-4.258541331752886,53.14912551568864
6617010,Ysgol Hafod Lon,Gwynedd,Special,Not Applicable,116.0,-4.079940792025,52.92419634902285
6627007,Ysgol Y Gogarth,Conwy,Special,Not Applicable,272.0,-3.8032663224740535,53.32064725339
6637000,YSGOL TIR MORFA,Denbighshire,Special,Not Applicable,114.0,-3.479284172692751,53.31009277886888
6637010,Ysgol Plas Brondyffryn,Denbighshire,Special,Not Applicable,119.0,-3.4093981790164856,53.18511235301864
6647020,Pen Coch,Flintshire,Special,Not Applicable,100.0,-3.1329177707873828,53.24453567514951
6647021,Ysgol Maes Hyfryd,Flintshire,Special,Not Applicable,131.0,-3.1351702857565957,53.23918457701451
6657005,St Christophers School,Wrexham,Special,Not Applicable,304.0,-2.9893012974465982,53.03661330061465
6667001,BRYNLLYWARCH HALL SCHOOL,Powys,Special,Not Applicable,87.0,-3.2519163708698393,52.495155273082204
6667002,YSGOL ROBERT OWEN,Powys,Special,Not Applicable,112.0,-3.3289674009808596,52.50387175222448
6667004,YSGOL PENMAES,Powys,Special,Not Applicable,115.0,-3.388984616953173,51.943366229404475
6687001,Portfield Special School,Pembrokeshire,Special,Not Applicable,187.0,-4.98410985702107,51.796692174203656
6691000,AMMANFORD NURSERY,Carmarthenshire,Nursery,Not Applicable,81.0,-3.9857919040263075,51.79399625339535
6697000,HEOL GOFFA,Carmarthenshire,Special,Not Applicable,127.0,-4.153170750328714,51.69084865531876
6717006,Ysgol Maes y Coed,Neath Port Talbot,Special,Not Applicable,125.0,-3.819705763375739,51.68868988698815
6717008,Ysgol Hendrefelin,Neath Port Talbot,Special,Not Applicable,175.0,-3.819473225667298,51.687797865222144
6727003,Heronsbridge Special School,Bridgend,Special,Not Applicable,269.0,-3.57453415760839,51.49877870960563
6727012,Ysgol Bryn Castell,Bridgend,Special,Not Applicable,181.0,-3.5674567845975904,51.55203747416203
6737024,Ysgol Y Deri,The Vale of Glamorgan,Special,Not Applicable,523.0,-3.195997981836089,51.43865370733489
6747006,MAESGWYN,Rhondda Cynon Taf,Special,Not Applicable,134.0,-3.470431230340116,51.722755735857724
6747008,Park Lane Special School,Rhondda Cynon Taf,Special,Not Applicable,146.0,-3.463012917208284,51.720008119330394
6747011,Ysgol Hen Felin,Rhondda Cynon Taf,Special,Not Applicable,244.0,-3.4620357635576084,51.642895947500726
6747015,Ysgol Ty Coch,Rhondda Cynon Taf,Special,Not Applicable,241.0,-3.3061201043755646,51.568312613945984
6757013,Greenfield School,Merthyr Tydfil,Special,Not Applicable,204.0,-3.3588087151009187,51.72619497673418
6767011,Trinity Fields School,Caerphilly,Special,Not Applicable,306.0,-3.2371036351615907,51.63825240992504
6777011,Pen-y-Cwm Special School,Blaenau Gwent,Special,Not Applicable,174.0,-3.1990684908529463,51.76667999350614
6777012,The River Centre 3-16 Learning Community,Blaenau Gwent,Special,Not Applicable,61.0,-3.205210248624988,51.78268471667346
6787012,Crownbridge Special School,Torfaen,Special,Not Applicable,142.0,-3.005358975287682,51.65345251544539
6801019,Newport Nursery School,Newport,Nursery,Not Applicable,68.0,-2.9840772517012324,51.59297277183592
6807002,MAES EBBW SCHOOL,Newport,Special,Not Applicable,157.0,-3.0131060718481173,51.567576073912726
6807004,Ysgol Bryn Derw,Newport,Special,Not Applicable,111.0,-3.0160967916895847,51.57782139725392
6811003,GRANGETOWN NURSERY SCHOOL,Cardiff,Nursery,Not Applicable,114.0,-3.1800916020987366,51.46338737903304
6811017,TREMORFA NURSERY,Cardiff,Nursery,Not Applicable,41.0,-3.139892003191511,51.48761739743942
6811018,Ely and Caerau Children's Centre,Cardiff,Nursery,Not Applicable,76.0,-3.2700793351402657,51.47296342623497
6817001,GREENHILL SPECIAL SCHOOL,Cardiff,Special,Not Applicable,77.0,-3.2202859306206597,51.52739770448448
6817005,THE COURT SCHOOL,Cardiff,Special,Not Applicable,42.0,-3.1827546485819735,51.53154978095178
6817006,WOODLANDS HIGH SCHOOL,Cardiff,Special,Not Applicable,182.0,-3.232893002924824,51.477838133770135
6817008,RIVERBANK SCHOOL,Cardiff,Special,Not Applicable,80.0,-3.235327638892602,51.47893739969117
6817011,TY-GWYN SPECIAL SCHOOL,Cardiff,Special,Not Applicable,251.0,-3.2342661717898884,51.47809919876678
6817019,THE HOLLIES SCHOOL,Cardiff,Special,Not Applicable,135.0,-3.1424234399286437,51.526068903334526
6817021,MEADOWBANK SPECIAL SCHOOL,Cardiff,Special,Not Applicable,98.0,-3.216817525942208,51.499495912038604
6602130,Ysgol Gynradd Amlwch,Isle of Anglesey,Primary,Community,258.0,-4.347426912213348,53.411881586779465
6602131,Ysgol Gynradd Beaumaris,Isle of Anglesey,Primary,Community,32.0,-4.102486860189532,53.26472582775942
6602132,Ysgol Gynradd Bodedern,Isle of Anglesey,Primary,Community,85.0,-4.499031594050572,53.29331163705983
6602133,Ysgol Gymuned Bodffordd,Isle of Anglesey,Primary,Community,76.0,-4.361256934469087,53.26459956339305
6602135,Ysgol Gymuned Bryngwran,Isle of Anglesey,Primary,Community,49.0,-4.477269444128347,53.26880771561487
6602136,Ysgol Gynradd Brynsiencyn,Isle of Anglesey,Primary,Community,35.0,-4.272533579148108,53.17703667081306
6602138,Ysgol Cemaes,Isle of Anglesey,Primary,Community,63.0,-4.456240878785669,53.408028374934275
6602140,Ysgol Esceifiog,Isle of Anglesey,Primary,Community,129.0,-4.278878243554921,53.22132128708827
6602142,Ysgol Gymuned y Ffridd,Isle of Anglesey,Primary,Community,82.0,-4.414105371965486,53.253740387259306
6602145,Ysgol Gymuned Moelfre,Isle of Anglesey,Primary,Community,51.0,-4.241059169116654,53.35354559447023
6602146,Ysgol Gynradd Llanbedrgoch,Isle of Anglesey,Primary,Community,22.0,-4.232008501989204,53.301407873665184
6602152,Ysgol Gynradd Llanfairpwll,Isle of Anglesey,Primary,Foundation,330.0,-4.204114432731621,53.22137956555511
6602153,Ysgol Gymuned Llanfechell,Isle of Anglesey,Primary,Community,81.0,-4.459317068766427,53.39041468854246
6602154,Ysgol Y Graig,Isle of Anglesey,Primary,Community,367.0,-4.297094089151457,53.260801011527356
6602155,YSGOL GYNRADD LLANGOED,Isle of Anglesey,Primary,Community,85.0,-4.0904672202928,53.291815190672004
6602156,Ysgol Henblas,Isle of Anglesey,Primary,Community,90.0,-4.3541134992547,53.23584402859785
6602157,Ysgol Gymuned Llannerch-y-medd,Isle of Anglesey,Primary,Community,123.0,-4.375744021153826,53.33137486079478
6602160,Ysgol Pencarnisiog,Isle of Anglesey,Primary,Community,64.0,-4.469660883443101,53.23490716582466
6602161,Ysgol Gymuned Pentraeth,Isle of Anglesey,Primary,Community,77.0,-4.218848735074933,53.281394734453286
6602162,Ysgol Penysarn,Isle of Anglesey,Primary,Community,64.0,-4.3142136835485925,53.39044408810556
6602163,Ysgol Santes Gwenfaen,Isle of Anglesey,Primary,Community,106.0,-4.598128413216044,53.26634679745118
6602164,Ysgol Gynradd Rhosneigr,Isle of Anglesey,Primary,Community,75.0,-4.517090079025709,53.23131590748784
6602165,Ysgol Gynradd Rhosybol,Isle of Anglesey,Primary,Community,75.0,-4.3648458183259455,53.37353369615311
6602168,Ysgol Gymuned y Fali,Isle of Anglesey,Primary,Community,118.0,-4.568614341311553,53.28119684186027
6602169,Ysgol Llanfawr,Isle of Anglesey,Primary,Community,256.0,-4.623830281711873,53.30774139820307
6602170,Ysgol Goronwy Owen,Isle of Anglesey,Primary,Community,138.0,-4.228446074610572,53.32175738654312
6602173,Ysgol Gynradd Y Tywyn,Isle of Anglesey,Primary,Community,100.0,-4.523271346206641,53.26312253495957
6602174,Ysgol Gynradd Llandegfan,Isle of Anglesey,Primary,Community,160.0,-4.14658987841562,53.24381870440937
6602175,Ysgol Gynradd y Borth,Isle of Anglesey,Primary,Community,192.0,-4.169104675531213,53.22965528130688
6602176,Ysgol Gynradd Kingsland,Isle of Anglesey,Primary,Community,166.0,-4.62595340588012,53.30026775063132
6602177,Ysgol Gymraeg Morswyn,Isle of Anglesey,Primary,Community,178.0,-4.623263414420183,53.30094739003581
6602226,Ysgol Gynradd Corn Hir,Isle of Anglesey,Primary,Community,338.0,-4.323156406459914,53.2616262197078
6602227,Rhyd y Llan,Isle of Anglesey,Primary,Community,118.0,-4.534727699246467,53.3538126868408
6602228,Ysgol Parc y Bont,Isle of Anglesey,Primary,Community,113.0,-4.2525404021613085,53.21186046266692
6603036,Cybi,Isle of Anglesey,Primary,Community,425.0,-4.640300942228688,53.31000213055441
6603037,Ysgol Santes Dwynwen,Isle of Anglesey,Primary,Voluntary controlled,106.0,-4.3581421714602335,53.16785151123754
6603304,Ysgol Santes Fair,Isle of Anglesey,Primary,Voluntary aided,99.0,-4.634425200614482,53.30817308079174
6604025,Ysgol Syr Thomas Jones,Isle of Anglesey,Secondary,Community,537.0,-4.35181091450635,53.40270564734501
6604026,Ysgol Uwchradd Caergybi,Isle of Anglesey,Secondary,Community,818.0,-4.639679660394291,53.31133870750044
6604027,Ysgol Gyfun Llangefni,Isle of Anglesey,Secondary,Community,761.0,-4.320262520410507,53.256090285938974
6604028,Ysgol David Hughes,Isle of Anglesey,Secondary,Community,1123.0,-4.1771214727706445,53.22819640604817
6604029,Ysgol Uwchradd Bodedern,Isle of Anglesey,Secondary,Community,810.0,-4.5050642638586895,53.29118113812661
6605200,Ysgol Caergeiliog,Isle of Anglesey,Primary,Foundation,309.0,-4.531010876142553,53.27446673540616
6612000,Ysgol Gwaun Gyfni,Gwynedd,Primary,Community,131.0,-4.128440788367754,53.14747721179923
6612004,YSGOL GYNRADD NEFYN,Gwynedd,Primary,Community,131.0,-4.5243160684313075,52.9352359075228
6612006,Ysgol Llanrug,Gwynedd,Primary,Community,265.0,-4.191381377818196,53.14743194608032
6612008,Ysgol Gynradd Abererch,Gwynedd,Primary,Community,71.0,-4.384425150393258,52.90354607354626
6612010,YSGOL BEDDGELERT,Gwynedd,Primary,Community,31.0,-4.105634580846592,53.01237744044433
6612011,Ysgol Bethel,Gwynedd,Primary,Community,147.0,-4.205227711325506,53.16490606358341
6612013,Ysgol Bodfeurig,Gwynedd,Primary,Community,55.0,-4.090034584614354,53.17817736997046
6612015,YSGOL GYNRADD BORTH-Y-GEST,Gwynedd,Primary,Community,32.0,-4.139385890001427,52.914319113310896
6612017,Ysgol Brynaerau,Gwynedd,Primary,Community,57.0,-4.325835822357879,53.04136612207349
6612026,Ysgol Y Gelli,Gwynedd,Primary,Community,222.0,-4.2574453603619205,53.14875969858934
6612028,Ysgol Penybryn,Gwynedd,Primary,Community,106.0,-4.057577095386104,53.18070260561491
6612033,Ysgol Treferthyr,Gwynedd,Primary,Community,118.0,-4.2340095180130275,52.91712612398724
6612036,Ysgol Gynradd Chwilog,Gwynedd,Primary,Community,91.0,-4.3341392289344505,52.920262193881314
6612039,YSGOL CRUD-Y-WERIN,Gwynedd,Primary,Community,55.0,-4.710554277822093,52.80756144943213
6612042,Ysgol Dolbadarn,Gwynedd,Primary,Community,132.0,-4.1283198195112165,53.117819065330735
6612046,Ysgol Gynradd Edern,Gwynedd,Primary,Community,78.0,-4.564844544966932,52.92348747448662
6612048,Ysgol Bro Plenydd,Gwynedd,Primary,Community,91.0,-4.385318662408278,52.92602464874602
6612049,Ysgol Gynradd Garndolbenmaen,Gwynedd,Primary,Community,15.0,-4.242450661798304,52.97249624122634
6612060,Ysgol Gynradd Llanbedrog,Gwynedd,Primary,Community,97.0,-4.488580229536298,52.85942646261507
6612066,Ysgol Gynradd Llangybi,Gwynedd,Primary,Community,23.0,-4.352892489761051,52.941543227014655
6612069,Ysgol Llanllechid,Gwynedd,Primary,Community,260.0,-4.065622211481864,53.18866378003986
6612070,Ysgol Gynradd Llanllyfni,Gwynedd,Primary,Community,77.0,-4.28293259693774,53.041100765795186
6612075,YSGOL BABANOD MORFA NEFYN,Gwynedd,Primary,Community,22.0,-4.549117384477036,52.93106447681806
6612078,Ysgol Baladeulyn,Gwynedd,Primary,Community,13.0,-4.215058138923921,53.05799295226246
6612081,Ysgol Gynradd Nebo,Gwynedd,Primary,Community,10.0,-4.269440872652668,53.02991344359994
6612085,Ysgol Gymuned Penisarwaun,Gwynedd,Primary,Community,39.0,-4.16228311458443,53.152549381033104
6612089,Ysgol Bro Lleu,Gwynedd,Primary,Community,190.0,-4.2777930024128015,53.05367893284003
6612093,YSGOL GYNRADD  PENTREUCHAF,Gwynedd,Primary,Community,93.0,-4.4518073770947595,52.9285907495614
6612097,Ysgol Rhiwlas,Gwynedd,Primary,Community,36.0,-4.1328617595096375,53.17360587254858
6612098,Ysgol Gynradd Rhosgadfan,Gwynedd,Primary,Community,39.0,-4.230934764504434,53.091151458379514
6612099,Ysgol Gynradd Rhostryfan,Gwynedd,Primary,Community,78.0,-4.246051799639585,53.0975112947472
6612103,YSGOL SARN BACH,Gwynedd,Primary,Community,24.0,-4.5194011927714985,52.81061622054394
6612104,Ysgol Eifion Wyn,Gwynedd,Primary,Community,212.0,-4.136411210954067,52.92942358036094
6612108,Ysgol Gynradd Talysarn,Gwynedd,Primary,Community,96.0,-4.255279465811036,53.05461156261838
6612110,YSGOL Y GORLAN,Gwynedd,Primary,Community,109.0,-4.14766210275069,52.93968617053494
6612111,Ysgol yr Eifl,Gwynedd,Primary,Community,44.0,-4.423614789131426,52.99306257163957
6612112,YSGOL GYNRADD TUDWEILIOG,Gwynedd,Primary,Community,51.0,-4.623545982771739,52.89875412761594
6612113,Ysgol Waunfawr,Gwynedd,Primary,Community,116.0,-4.206062118497114,53.11175486450951
6612116,Ysgol Glancegin,Gwynedd,Primary,Community,219.0,-4.117337107696241,53.22598344078872
6612119,Ysgol Yr Hendre,Gwynedd,Primary,Community,378.0,-4.259524682648977,53.136594300116066
6612122,Ysgol Bontnewydd,Gwynedd,Primary,Community,214.0,-4.2694273483029095,53.11507288320503
6612123,Ysgol Gymraeg y Garnedd,Gwynedd,Primary,Community,394.0,-4.156253404383262,53.21393921213924
6612125,Ysgol Cymerau,Gwynedd,Primary,Community,253.0,-4.417367594641822,52.88251412899577
6612126,Ysgol Abercaseg (Babanod),Gwynedd,Primary,Community,76.0,-4.054775813049778,53.177829060367955
6612127,Ysgol y Felinheli,Gwynedd,Primary,Community,157.0,-4.216423569071725,53.1769076438533
6612181,Ysgol y Traeth,Gwynedd,Primary,Community,185.0,-4.061401271711223,52.724936339058885
6612185,Ysgol Gynradd Dyffryn Dulas,Gwynedd,Primary,Community,33.0,-3.840835336668521,52.653088609241415
6612189,Ysgol Gynradd Dyffryn Ardudwy,Gwynedd,Primary,Community,68.0,-4.094991185570587,52.784273358931145
6612190,Ysgol Bro Cynfal,Gwynedd,Primary,Community,40.0,-3.9323052082405803,52.95847097834532
6612192,Ysgol Edmwnd Prys,Gwynedd,Primary,Community,18.0,-3.959795983892781,52.93952685521277
6612194,Ysgol Gynradd Llanbedr,Gwynedd,Primary,Community,43.0,-4.096142240565945,52.8214671014081
6612198,YSGOL Y GARREG,Gwynedd,Primary,Community,17.0,-4.06322393991601,52.95416565549639
6612199,Ysgol O M Edwards,Gwynedd,Primary,Community,74.0,-3.6748264297816347,52.85971864645525
6612205,Ysgol Manod,Gwynedd,Primary,Community,86.0,-3.931100771102788,52.98455433273006
6612207,Ysgol Gynradd Pennal,Gwynedd,Primary,Community,34.0,-3.9219270108656126,52.58599497209369
6612208,Ysgol Cefn Coch,Gwynedd,Primary,Community,157.0,-4.06811549665602,52.93001208814207
6612210,Ysgol Talsarnau,Gwynedd,Primary,Community,26.0,-4.066899150129632,52.90167600913758
6612211,Ysgol Gynradd Tanygrisiau,Gwynedd,Primary,Community,32.0,-3.957484990835284,52.98655013758118
6612212,Ysgol Gynradd Penybryn,Gwynedd,Primary,Community,240.0,-4.082777998093567,52.585162201486355
6612213,Ysgol Bro Hedd Wyn,Gwynedd,Primary,Community,64.0,-3.923032853818958,52.90116216339581
6612214,Ysgol Bro Tryweryn,Gwynedd,Primary,Community,61.0,-3.6314688834192146,52.93928435319936
6612219,Ysgol Tanycastell,Gwynedd,Primary,Community,77.0,-4.106901679873958,52.86345350478501
6612220,Ysgol Ffridd y LLyn,Gwynedd,Primary,Community,45.0,-3.538603168794436,52.932773891843716
6612221,Ysgol Maenofferen,Gwynedd,Primary,Community,214.0,-3.938260802083117,52.9944083378272
6612227,Ysgol Hirael,Gwynedd,Primary,Community,191.0,-4.122026503374429,53.231438185482176
6612228,Ysgol Craig y Deryn,Gwynedd,Primary,Community,95.0,-4.0726987010275195,52.62575199063205
6612229,Ysgol Bro Llifon,Gwynedd,Primary,Community,150.0,-4.2754665920253165,53.07776549232962
6613004,YSGOL PONT Y GOF,Gwynedd,Primary,Voluntary controlled,101.0,-4.587309317044465,52.84986056544666
6613005,Ysgol Gynradd Maesincla,Gwynedd,Primary,Voluntary controlled,266.0,-4.259686250882793,53.14159638204697
6613009,Ysgol Y Faenol,Gwynedd,Primary,Voluntary controlled,225.0,-4.168790535864258,53.208326185451526
6613010,YSGOL FOEL GRON,Gwynedd,Primary,Voluntary controlled,29.0,-4.522016110847414,52.85088873710096
6613013,Ysgol Llandygai,Gwynedd,Primary,Voluntary controlled,80.0,-4.097846839780005,53.216807288617936
6613018,Ysgol Gynradd Llandwrog,Gwynedd,Primary,Voluntary controlled,42.0,-4.312858423189406,53.078986313302664
6613023,Ysgol Gynradd Llanystumdwy,Gwynedd,Primary,Voluntary controlled,25.0,-4.272517313953969,52.92273421895621
6613029,Ysgol Tregarth,Gwynedd,Primary,Voluntary controlled,114.0,-4.087064078593774,53.19034875247735
6613030,Ysgol Cae Top,Gwynedd,Primary,Voluntary controlled,236.0,-4.153104535690404,53.21864432935271
6613300,Ysgol Santes Helen,Gwynedd,Primary,Voluntary aided,40.0,-4.269669482479874,53.14291689243189
6613301,Ysgol Ein Harglwyddes,Gwynedd,Primary,Voluntary aided,152.0,-4.13405160548821,53.22166639434536
6614002,Ysgol Dyffryn Ogwen Bethesda,Gwynedd,Secondary,Community,398.0,-4.064840259489101,53.18267167069287
6614003,Ysgol Botwnnog,Gwynedd,Secondary,Community,469.0,-4.581583431733957,52.8527367976279
6614004,Ysgol Brynrefail,Gwynedd,Secondary,Community,764.0,-4.1913052056300835,53.15063406615708
6614007,Ysgol Dyffryn Nantlle,Gwynedd,Secondary,Community,397.0,-4.278762911294573,53.05367833149224
6614009,YSGOL EIFIONYDD,Gwynedd,Secondary,Community,373.0,-4.1311301333073205,52.93186510373568
6614031,Ysgol Y Moelwyn,Gwynedd,Secondary,Community,355.0,-3.938100637994832,52.99183065077102
6614032,YSGOL UWCHRADD TYWYN,Gwynedd,Secondary,Community,376.0,-4.089530492317217,52.584674547205786
6614034,Ysgol Ardudwy,Gwynedd,Secondary,Community,331.0,-4.111397980951923,52.862123850892345
6614036,Ysgol Friars,Gwynedd,Secondary,Community,1383.0,-4.1523261695014195,53.21775933382497
6614037,Ysgol Tryfan,Gwynedd,Secondary,Community,513.0,-4.144996161365578,53.22004930280682
6614039,Ysgol Syr Hugh Owen,Gwynedd,Secondary,Community,873.0,-4.264127888368458,53.14587256056077
6614040,Ysgol Glan y Mor,Gwynedd,Secondary,Community,474.0,-4.422561287499507,52.88209353687149
6615500,Bro Idris,Gwynedd,Middle,Community,541.0,-3.8797829254330067,52.74137903709184
6615501,YSGOL Godre'r Berwyn,Gwynedd,Middle,Community,571.0,-3.598276818774855,52.91284577572557
6622012,Ysgol Betws y Coed,Conwy,Primary,Community,14.0,-3.818821759275024,53.092645688914125
6622023,Ysgol Capelulo,Conwy,Primary,Community,136.0,-3.903887611488036,53.274680604644686
6622038,Ysgol Deganwy,Conwy,Primary,Community,327.0,-3.821181890406496,53.29250557631317
6622043,Ysgol Dolwyddelan,Conwy,Primary,Community,19.0,-3.885071633847467,53.05199371891669
6622044,Ysgol Ffordd Dyffryn,Conwy,Primary,Community,174.0,-3.8349056014569176,53.31653223395961
6622053,Ysgol Glanwydden,Conwy,Primary,Community,296.0,-3.778947042980202,53.31059272847731
6622061,Ysgol Tudno,Conwy,Primary,Community,184.0,-3.830844852699881,53.31986700427095
6622063,Ysgol Morfa Rhianedd,Conwy,Primary,Community,153.0,-3.8263944394074763,53.31655501036006
6622086,Ysgol Penmachno,Conwy,Primary,Community,38.0,-3.8015991408726224,53.04072805793608
6622103,Ysgol Llandrillo yn Rhos,Conwy,Primary,Community,427.0,-3.0823137095305397,53.16714351780315
6622104,Ysgol Talhaiarn,Conwy,Primary,Community,45.0,-3.6103829041731057,53.217247154004816
6622108,Ysgol  T. Gwynn Jones,Conwy,Primary,Community,187.0,-3.702674040388663,53.28819775017096
6622110,Ysgol Maes Owen,Conwy,Primary,Community,204.0,-3.5256030917891956,53.304600888715854
6622111,Ysgol Glan Gele,Conwy,Primary,Community,285.0,-3.5755640924581376,53.28707758916717
6622112,Ysgol Glan Morfa,Conwy,Primary,Community,247.0,-3.575140825604621,53.28739782135756
6622114,Ysgol Bod Alaw,Conwy,Primary,Community,331.0,-3.7191472532777725,53.288213061271236
6622115,Ysgol Pant y Rhedyn,Conwy,Primary,Community,108.0,-3.9738642759039906,53.25830381075912
6622118,Ysgol Y Foryd,Conwy,Primary,Community,193.0,-3.5243730187331814,53.304616619680495
6622121,Ysgol Craig y Don,Conwy,Primary,Community,298.0,-3.814220095923668,53.31799044999094
6622123,Ysgol Cerrigydrudion,Conwy,Primary,Community,91.0,-3.5601874440391925,53.02687952629424
6622132,"Ysgol Bro Aled, Llansannan",Conwy,Primary,Community,64.0,-3.6001963202905243,53.17821563221846
6622148,Ysgol Gynradd Bro Cernyw,Conwy,Primary,Community,103.0,-3.6847635987470913,53.190606119342405
6622221,Ysgol Sant Elfod,Conwy,Primary,Community,291.0,-3.576101026447931,53.28780764724592
6622222,Ysgol Capel Garmon,Conwy,Primary,Community,18.0,-3.76993268136742,53.08370055662639
6622225,Ysgol Glan Conwy,Conwy,Primary,Community,111.0,-3.7943772443480115,53.267632158329384
6622264,Ysgol Cynfran,Conwy,Primary,Community,156.0,-3.656980384537616,53.28169468233213
6622267,Ysgol Iau Hen Golwyn,Conwy,Primary,Community,201.0,-3.7030700126490133,53.28947764378099
6622270,Ysgol Pentrefoelas,Conwy,Primary,Community,45.0,-3.6813427271891723,53.04721799662968
6622271,Ysgol Bro Gwydir,Conwy,Primary,Community,320.0,-3.795235197746329,53.13734369353273
6622272,Ysgol Nant Y Groes,Conwy,Primary,Community,234.0,-3.718269303517607,53.293251057623465
6622273,Ysgol Swn Y Don,Conwy,Primary,Community,118.0,-3.6803266955331098,53.2868247262524
6622274,Ysgol Awel y Mynydd,Conwy,Primary,Community,402.0,-3.791757706092336,53.2859438177378
6622275,Ysgol Dyffryn Yr Enfys,Conwy,Primary,Community,107.0,-3.843430860463477,53.19457353383479
6623020,Ysgol Babanod Llanfairfechan,Conwy,Primary,Voluntary controlled,109.0,-3.976050193858174,53.25271158432644
6623021,Ysgol Llangelynnin,Conwy,Primary,Voluntary controlled,71.0,-3.8450957715364233,53.255539288358115
6623024,Ysgol Pencae,Conwy,Primary,Voluntary aided,155.0,-3.914450021817902,53.26939601498232
6623032,Ysgol Ysbyty Ifan,Conwy,Primary,Voluntary controlled,17.0,-3.7291084285469203,53.02328432178306
6623038,Ysgol St. George,Conwy,Primary,Voluntary controlled,73.0,-3.538970650114906,53.27025945423111
6623039,Ysgol Llanddoged,Conwy,Primary,Voluntary controlled,37.0,-3.785494075719289,53.157313520480606
6623040,Ysgol Eglwysbach,Conwy,Primary,Voluntary controlled,58.0,-3.7932472663621266,53.215542868909296
6623043,Ysgol Porth Y Felin,Conwy,Primary,Voluntary controlled,319.0,-3.8330865621095724,53.278289677192376
6623059,Ysgol Llanddulas,Conwy,Primary,Voluntary controlled,138.0,-3.643809029188054,53.28869128288838
6623062,Ysgol Betws yn Rhos,Conwy,Primary,Voluntary controlled,74.0,-3.641055101240519,53.24814924703443
6623302,Ysgol Bodafon,Conwy,Primary,Voluntary aided,80.0,-3.7902835660129517,53.31928714762834
6623303,Ysgol Bendigaid William Davies,Conwy,Primary,Voluntary aided,120.0,-3.8208343819123667,53.31254959321217
6623307,Ysgol  San Sior,Conwy,Primary,Voluntary aided,226.0,-3.840428590824867,53.32381892734944
6623333,Ysgol Sant Joseph,Conwy,Primary,Voluntary aided,231.0,-3.7344299323376178,53.29698159809203
6623340,Ysgol y Plas,Conwy,Primary,Voluntary aided,74.0,-3.6831446752089687,53.265011563365334
6624022,Ysgol John Bright,Conwy,Secondary,Community,1091.0,-3.8256710780578898,53.31559723577909
6624023,Ysgol Aberconwy,Conwy,Secondary,Community,1083.0,-3.837442257706254,53.2868171048664
6624035,YSGOL DYFFRYN CONWY,Conwy,Secondary,Community,649.0,-3.7840723326300294,53.1341280771175
6624038,YSGOL Y CREUDDYN,Conwy,Secondary,Community,698.0,-3.778897017401471,53.31155539714873
6625201,Ysgol Pen Y Bryn,Conwy,Primary,Foundation,428.0,-3.7386930437556285,53.287785769033746
6625400,Ysgol Emrys ap Iwan,Conwy,Secondary,Foundation,946.0,-3.5775247657220093,53.28532563977967
6625402,Eirias High School,Conwy,Secondary,Foundation,1200.0,-3.7174418724970533,53.29095258274185
6625403,Ysgol Bryn Elian,Conwy,Secondary,Foundation,981.0,-3.705172417870222,53.28576174965171
6632011,Ysgol Hiraddug,Denbighshire,Primary,Community,223.0,-3.4130707502723885,53.298535199640945
6632037,Ysgol Y Castell CP,Denbighshire,Primary,Community,210.0,-3.4624253371548472,53.28907846761274
6632038,Christ Church Primary School,Denbighshire,Primary,Community,422.0,-3.4865692219611675,53.316294875290545
6632039,Ysgol Llywelyn,Denbighshire,Primary,Community,684.0,-3.4692935673870116,53.31463015006595
6632057,Ysgol y Faenol,Denbighshire,Primary,Community,138.0,-3.5096889217106804,53.26954615391784
6632059,Ysgol Penmorfa CP,Denbighshire,Primary,Community,391.0,-3.408796170596283,53.33003990965972
6632060,Ysgol Emmanuel,Denbighshire,Primary,Community,455.0,-3.482734465717693,53.316099895531444
6632066,Ysgol Dewi Sant,Denbighshire,Primary,Community,426.0,-3.4713213712424937,53.30869830499535
6632067,Ysgol Melyd,Denbighshire,Primary,Community,140.0,-3.415190915404302,53.31636316207481
6632070,Ysgol Bodfari,Denbighshire,Primary,Community,47.0,-3.3623248601437323,53.219371001077235
6632072,Ysgol Bryn Hedydd,Denbighshire,Primary,Community,468.0,-3.4673050950568953,53.325801636828935
6632124,Ysgol Cefn Meiriadog,Denbighshire,Primary,Community,60.0,-3.499795706169657,53.24866224171016
6632125,Frongoch Juniors,Denbighshire,Primary,Community,209.0,-3.408779391478894,53.18934094120265
6632127,Ysgol Henllan,Denbighshire,Primary,Community,68.0,-3.4584785120606765,53.200765800385476
6632134,Ysgol Twm o'r Nant,Denbighshire,Primary,Community,314.0,-3.4088415815647837,53.1884211945149
6632135,Ysgol Bryn Clwyd,Denbighshire,Primary,Community,58.0,-3.337087773357865,53.177055410722076
6632136,Ysgol Y Parc,Denbighshire,Primary,Community,155.0,-3.406659635880693,53.186613097347845
6632164,Ysgol Gellifor,Denbighshire,Primary,Community,46.0,-3.3145592920725133,53.15244823819213
6632168,Ysgol Pentrecelyn,Denbighshire,Primary,Community,27.0,-3.272947048229049,53.066979462896946
6632214,Ysgol Betws Gwerful Goch,Denbighshire,Primary,Community,20.0,-3.4454694573056477,53.009720294081674
6632215,Ysgol Carrog,Denbighshire,Primary,Community,28.0,-3.3250156290782154,52.982474199296455
6632216,Ysgol Caer Drewyn,Denbighshire,Primary,Community,89.0,-3.37988223803007,52.98993079575168
6632219,Ysgol Bro Elwern,Denbighshire,Primary,Community,68.0,-3.3803343886006765,53.008309856675226
6632227,Ysgol Y Llys,Denbighshire,Primary,Community,344.0,-3.4123315484672903,53.32535568101881
6632234,Ysgol Bryn Collen,Denbighshire,Primary,Community,166.0,-3.1615818711311707,52.96268842004308
6632255,Rhos Street CP School,Denbighshire,Primary,Community,223.0,-3.3221648914031072,53.11707766142839
6632256,Ysgol Pen Barras,Denbighshire,Primary,Community,293.0,-3.3222639617207985,53.1167565291197
6632261,Ysgol Bro Cinmeirch,Denbighshire,Primary,Community,98.0,-3.3716876789118855,53.15742400735109
6632262,Ysgol Bro Famau,Denbighshire,Primary,Community,61.0,-3.1992305893578856,53.102256457896935
6632263,Ysgol Gymraeg y Gwernant,Denbighshire,Primary,Community,186.0,-3.1615386633881446,52.962742780752
6632264,Ysgol Clawdd Offa,Denbighshire,Primary,Community,343.0,-3.427273366661184,53.32800869024952
6632265,Bodnant Community Primary School,Denbighshire,Primary,Community,475.0,-3.3982548715927323,53.33621202994791
6632266,Ysgol Pendref,Denbighshire,Primary,Community,130.0,-3.431877131319499,53.18429279242705
6632267,Ysgol_Bro_Dyfrdwy,Denbighshire,Primary,Community,119.0,-3.4065298910054196,52.960382701117666
6632268,Ysgol Carreg Emlyn,Denbighshire,Primary,Community,59.0,-3.369374450227127,53.07755969327442
6633020,Ysgol Tremeirchion,Denbighshire,Primary,Voluntary controlled,83.0,-3.376522022606746,53.246868645057454
6633024,St Asaph Infants School,Denbighshire,Primary,Voluntary controlled,91.0,-3.440532127064015,53.25711006369468
6633044,Ysgol Llanbedr,Denbighshire,Primary,Voluntary controlled,52.0,-3.288345903382234,53.13181367760567
6633045,Ysgol Llanfair Dyffryn Clwyd,Denbighshire,Primary,Voluntary controlled,122.0,-3.2968323406300843,53.087840309304546
6633050,Ysgol Borthyn,Denbighshire,Primary,Voluntary controlled,101.0,-3.318166264463639,53.11356597835504
6633057,Ysgol Pant Pastynog,Denbighshire,Primary,Voluntary controlled,65.0,-3.427018786134136,53.144718588945686
6633061,Ysgol Dyffryn Ial,Denbighshire,Primary,Voluntary controlled,42.0,-3.2009098699142684,53.06227658066364
6633062,Ysgol Esgob Morgan,Denbighshire,Primary,Community,111.0,-3.453290222007493,53.25890223923767
6633316,Ysgol Trefnant,Denbighshire,Primary,Voluntary aided,78.0,-3.42331276560919,53.223854019459864
6634003,Rhyl High School,Denbighshire,Secondary,Community,1167.0,-3.472088048371277,53.32094966789193
6634014,Prestatyn High School,Denbighshire,Secondary,Community,1487.0,-3.4068639585912375,53.32653885429981
6634020,Ysgol Uwchradd Glan Clwyd,Denbighshire,Secondary,Community,1048.0,-3.4381852573625244,53.25507610621942
6634026,Denbigh High School,Denbighshire,Secondary,Community,497.0,-3.4080124474211813,53.18548068809077
6634027,Ysgol Dinas Bran,Denbighshire,Secondary,Community,1022.0,-3.170474118066638,52.97275056764615
6634031,Ysgol Brynhyfryd,Denbighshire,Secondary,Community,1121.0,-3.2976613036070055,53.11459139842466
6635901,St Brigid's School,Denbighshire,Middle,Voluntary aided,484.0,-3.4049816289774166,53.19879281965731
6635902,Christ the Word,Denbighshire,Middle,Voluntary aided,870.0,-3.477226733435147,53.31341978250041
6642002,Ysgol Glan Aber,Flintshire,Primary,Community,134.0,-3.189241570344488,53.27821034316367
6642003,Ysgol Merllyn,Flintshire,Primary,Community,143.0,-3.1679769579182318,53.26506393409667
6642004,Westwood CP,Flintshire,Primary,Community,198.0,-3.081403689542666,53.16739072261992
6642012,Ewloe Green,Flintshire,Primary,Community,380.0,-3.060791959189008,53.19051651752272
6642013,Bryn Garth CP,Flintshire,Primary,Community,85.0,-3.304676021073866,53.32489831359529
6642015,Ysgol Gwynedd CP,Flintshire,Primary,Community,500.0,-3.1337212214717227,53.24514407071396
6642018,Ysgol Maesglas,Flintshire,Primary,Community,209.0,-3.2128937933465695,53.29032399178732
6642021,Ysgol Gymraeg Mornant,Flintshire,Primary,Community,68.0,-3.3254502626951523,53.3289498188086
6642024,Ysgol Estyn Community School,Flintshire,Primary,Community,226.0,-3.0332971984843344,53.114477626183636
6642028,Ysgol Glanrafon,Flintshire,Primary,Community,326.0,-3.1451478889029474,53.162747115291374
6642032,Northop Hall,Flintshire,Primary,Community,149.0,-3.092971152231863,53.20287500054228
6642040,Wood Memorial Primary School,Flintshire,Primary,Community,169.0,-2.922071209189721,53.178357898752544
6642041,Sealand CP School,Flintshire,Primary,Community,207.0,-3.011965097067051,53.213216461273966
6642043,Sychdyn CP,Flintshire,Primary,Community,159.0,-3.1324446507960446,53.190084790405294
6642044,Trelogan Primary,Flintshire,Primary,Community,51.0,-3.3250861242860665,53.30684694084353
6642046,Bryn Pennant CP,Flintshire,Primary,Community,113.0,-3.261271328364618,53.307851327007334
6642049,Ysgol Bro Carmel,Flintshire,Primary,Community,158.0,-3.2563538994187256,53.28109947152401
6642050,Rhos Helyg School,Flintshire,Primary,Community,89.0,-3.1823109558068268,53.21737773569829
6642051,Ysgol Terrig,Flintshire,Primary,Community,97.0,-3.1181684858667973,53.11357701270902
6642052,Ysgol Bryn Deva,Flintshire,Primary,Community,320.0,-3.065728554011622,53.21757489668502
6642053,Sandycroft CP,Flintshire,Primary,Community,352.0,-3.0122921698073393,53.199136522694616
6642056,Gwernymynydd CP School,Flintshire,Primary,Community,62.0,-3.170396554416939,53.156432484458655
6642061,Queensferry Community Primary School,Flintshire,Primary,Community,111.0,-3.0298767066738304,53.2063661558257
6642062,Ysgol Bryn Coch,Flintshire,Primary,Community,636.0,-3.139683830715452,53.1657471667191
6642063,Mountain Lane Primary School,Flintshire,Primary,Community,462.0,-3.0734339925041323,53.1701366233722
6642064,"Ysgol y Foel, Cilcain",Flintshire,Primary,Community,30.0,-3.2335127581249434,53.17931104391055
6642065,Brynford CP,Flintshire,Primary,Community,85.0,-3.234283976572864,53.25768451312167
6642068,Ysgol Bryn Gwalia,Flintshire,Primary,Community,138.0,-3.150898092581658,53.16677458224965
6642077,Golftyn CP School,Flintshire,Primary,Community,376.0,-3.0704375185328328,53.22083174557793
6642078,Saltney Ferry CP,Flintshire,Primary,Community,137.0,-2.9459707245987667,53.17718541910145
6642081,Y Waun,Flintshire,Primary,Community,55.0,-3.1919745227632714,53.17321838991246
6642082,Ysgol Gwenffrwd,Flintshire,Primary,Community,116.0,-3.2274255189132806,53.275965682609865
6642084,Abermorddu CP School,Flintshire,Primary,Community,173.0,-3.033301952930275,53.10157365023268
6642085,Southdown CP,Flintshire,Primary,Community,341.0,-3.0885977381645766,53.1702719772064
6642086,Wepre Community School,Flintshire,Primary,Community,314.0,-3.0711930488469843,53.20429366123352
6642089,Drury Primary School,Flintshire,Primary,Community,139.0,-3.053246478017539,53.17039643996172
6642091,Cornist Park CP,Flintshire,Primary,Community,252.0,-3.1515916756684144,53.24538794611533
6642092,Ysgol Derwenfa CP,Flintshire,Primary,Community,79.0,-3.08815193213701,53.130211959115336
6642093,Penarlag CP,Flintshire,Primary,Community,152.0,-3.043531801833307,53.192143590455444
6642094,Owen Jones CP,Flintshire,Primary,Community,135.0,-3.1368926158422172,53.208547733918486
6642237,Gronant Primary School,Flintshire,Primary,Community,54.0,-3.35596003455602,53.338146056667725
6642257,Ysgol Gymraeg Croes Atti,Flintshire,Primary,Community,274.0,-3.126164960363415,53.24564980589495
6642266,Ysgol Parc y Llan,Flintshire,Primary,Community,127.0,-3.1178227182687683,53.11367312198371
6642267,Ysgol Mynydd Isa,Flintshire,Primary,Community,483.0,-3.1103020054599053,53.1732396275058
6642268,Broughton Primary School,Flintshire,Primary,Community,584.0,-2.985550462562136,53.1666754665166
6642269,Ysgol Cae'r Nant,Flintshire,Primary,Community,335.0,-3.054218763637188,53.21361531603097
6642270,Ysgol Penyffordd,Flintshire,Primary,Community,345.0,-3.0421145707528536,53.150438805435435
6642271,Ysgol Ty Ffynnon,Flintshire,Primary,Community,269.0,-3.046339984789219,53.20860466884317
6642272,Ysgol Maes Y Felin,Flintshire,Primary,Community,281.0,-3.2145749738200755,53.276015405528874
6643002,Nannerch V.C.P. School,Flintshire,Primary,Voluntary controlled,44.0,-3.2491652912684885,53.216451928897364
6643303,Ysgol Yr Esgob C in W,Flintshire,Primary,Voluntary aided,63.0,-3.3102841268487926,53.24500521030605
6643306,St Mary's,Flintshire,Primary,Voluntary aided,274.0,-3.128960456512786,53.240808873804745
6643307,St Winefrides,Flintshire,Primary,Community,170.0,-3.22643954754986,53.27534037423241
6643308,St David's Catholic Primary School,Flintshire,Primary,Voluntary aided,75.0,-3.135126043198908,53.16974558990636
6643311,St Anthony's Catholic Primary,Flintshire,Primary,Voluntary aided,68.0,-2.925023989239725,53.178387946903214
6643312,Venerable Edward Morgan RC,Flintshire,Primary,Voluntary aided,191.0,-3.0428994093374313,53.20689091993617
6643316,Trelawnyd,Flintshire,Primary,Voluntary aided,66.0,-3.369067279543507,53.30688859218339
6643320,Ysgol y Llan VA Primary School Whitford,Flintshire,Primary,Voluntary aided,70.0,-3.2816745992903287,53.29444228063869
6643330,St. Ethelwolds,Flintshire,Primary,Voluntary aided,83.0,-3.0392330779796337,53.20202380758287
6643331,St John the Baptist VA School,Flintshire,Primary,Voluntary aided,109.0,-3.040096569995401,53.157660512779955
6643332,Nercwys VA,Flintshire,Primary,Voluntary aided,17.0,-3.1437074299457195,53.135550017589026
6643333,Hawarden Village VA,Flintshire,Primary,Voluntary aided,386.0,-3.0224557128804417,53.185260170101536
6643334,Lixwm VA Church in Wales Primary School,Flintshire,Primary,Voluntary aided,56.0,-3.2485758988775855,53.23313987430281
6644000,Hawarden High School,Flintshire,Secondary,Community,1161.0,-3.04164395584004,53.18846488624379
6644006,Alun School,Flintshire,Secondary,Community,1480.0,-3.1408082456634414,53.1610547120959
6644011,Elfed High School,Flintshire,Secondary,Community,901.0,-3.0831605700859512,53.17188390644697
6644012,Ysgol Treffynnon,Flintshire,Secondary,Community,519.0,-3.2152694239954704,53.276515146183556
6644013,St. David's High School,Flintshire,Secondary,Community,351.0,-2.9391502012078905,53.17728956056666
6644017,Castell Alun High School,Flintshire,Secondary,Community,1283.0,-3.03580647975613,53.118772072866875
6644018,Maes Garmon,Flintshire,Secondary,Community,578.0,-3.1404400850279037,53.1622140981483
6644021,Flint High School,Flintshire,Secondary,Community,747.0,-3.136710167659733,53.239166123112106
6644022,"Connah's Quay High School,",Flintshire,Secondary,Community,1014.0,-3.078804260041569,53.22298562395964
6644042,Argoed School,Flintshire,Secondary,Community,599.0,-3.103967214968197,53.17343956397742
6644600,St. Richard Gwyn Catholic High School,Flintshire,Secondary,Voluntary aided,774.0,-3.1277694458989886,53.24081358861779
6645200,Derwen Foundation School,Flintshire,Primary,Foundation,187.0,-3.0020781904860137,53.14561814074592
6652076,The Rofft CP School,Wrexham,Primary,Community,217.0,-2.9597104074430076,53.089533773617845
6652137,Froncysyllte,Wrexham,Primary,Community,11.0,-3.0879555440432864,52.96314258524896
6652138,Garth CP,Wrexham,Primary,Community,58.0,-3.105311440883823,52.97698832128007
6652139,Ysgol Cynddelw,Wrexham,Primary,Community,83.0,-3.181159567052688,52.933719196096206
6652140,Llanarmon DC School,Wrexham,Primary,Community,22.0,-3.2555357289591766,52.885336965928886
6652149,Ysgol Acrefair,Wrexham,Primary,Community,205.0,-3.0790898874792485,52.980186791820536
6652151,Cefn Mawr C P School,Wrexham,Primary,Community,192.0,-3.0731506695218256,52.9709212830742
6652160,Ysgol Maes-y-Llan,Wrexham,Primary,Community,138.0,-3.036448291957452,52.98822884181029
6652162,Ysgol Min y Ddol,Wrexham,Primary,Community,124.0,-3.073423229686132,52.97030455932832
6652173,Alexandra C P School,Wrexham,Primary,Community,367.0,-2.9873329662517847,53.050277108450544
6652176,Brynteg C P School,Wrexham,Primary,Community,166.0,-3.0372550021329254,53.06482725666955
6652178,BWLCHGWYN SCHOOL,Wrexham,Primary,Community,106.0,-3.0956824946683112,53.071983268581704
6652179,Ysgol Tan-y-Fron,Wrexham,Primary,Community,139.0,-3.0494596685872533,53.06193562602602
6652187,Black Lane C P School,Wrexham,Primary,Community,151.0,-3.0437502060867425,53.0734145402537
6652191,Rhosddu County Primary,Wrexham,Primary,Community,274.0,-2.997397487568097,53.05548379125241
6652200,Rhostyllen CP School,Wrexham,Primary,Community,220.0,-3.025273504083913,53.030977826819694
6652204,Ysgol Deiniol C P,Wrexham,Primary,Community,158.0,-2.956914349763569,53.02354927941324
6652208,Barker's Lane CP,Wrexham,Primary,Community,242.0,-2.9778798843740955,53.06769762794347
6652209,Wat's Dyke County Primary,Wrexham,Primary,Community,282.0,-2.9967238379494923,53.06286438387797
6652224,Ysgol Bryn Tabor,Wrexham,Primary,Community,200.0,-3.067701992005941,53.051970941167156
6652232,Ysgol Sant Dunawd,Wrexham,Primary,Community,93.0,-2.905819339266403,53.003286435030745
6652235,Holt C.P. School,Wrexham,Primary,Community,68.0,-2.8836711605482424,53.07853959283717
6652238,Ysgol Bodhyfryd,Wrexham,Primary,Community,280.0,-2.9855555039571846,53.03519709712793
6652259,Ysgol I.D. Hooson,Wrexham,Primary,Community,228.0,-3.063108852017516,53.007530281924055
6652263,Ysgol Plas Coch,Wrexham,Primary,Community,307.0,-3.005055012216474,53.058287240430346
6652266,Penygelli C P School,Wrexham,Primary,Community,255.0,-3.0638104883486017,53.052987286014016
6652267,Ysgol Penrhyn New Broughton CP,Wrexham,Primary,Community,218.0,-3.0319712374379075,53.05792434819149
6652268,Ysgol Heulfan,Wrexham,Primary,Community,331.0,-3.023001092208888,53.07303931611363
6652269,Hafod y Wern Community Primary School,Wrexham,Primary,Community,249.0,-2.9721844936401536,53.047058180737714
6652270,Gwenfro Community Primary,Wrexham,Primary,Community,298.0,-2.9711282939128463,53.0393988939822
6652271,Park Community Primary School Llay,Wrexham,Primary,Community,337.0,-2.9996209976072676,53.09701282364662
6652272,Rhosymedre Community Primary,Wrexham,Primary,Community,215.0,-3.0627362866723904,52.979671968975495
6652273,Ysgol Maes y Mynydd,Wrexham,Primary,Community,292.0,-3.060006089411174,53.01537028357005
6652274,Gwersyllt Community Primary School,Wrexham,Primary,Community,238.0,-3.014154415478764,53.07162757791949
6652275,Penycae Community Primary School,Wrexham,Primary,Community,181.0,-3.066176778279901,52.998345564241184
6652276,Acton Primary,Wrexham,Primary,Community,326.0,-2.985240595679329,53.06194532207805
6652277,Victoria Community Primary,Wrexham,Primary,Community,440.0,-3.001250938029366,53.041971885422946
6652278,Ysgol Y Waun,Wrexham,Primary,Community,320.0,-3.0528164545691188,52.93756458082848
6652279,Ysgol Bro Alun,Wrexham,Primary,Community,280.0,-3.0175254438323336,53.078877005188474
6652280,"Ysgol Yr Hafod, Johnstown",Wrexham,Primary,Community,346.0,-3.0381351611312004,53.00894973776096
6652281,Borras Park Community Primary,Wrexham,Primary,Community,431.0,-2.9689044246746015,53.06102450929468
6652282,Ysgol Llan y pwll,Wrexham,Primary,Community,47.0,-2.9702584591442602,53.060321196385416
6653028,St Peter's School,Wrexham,Primary,Voluntary controlled,205.0,-2.940122687866914,53.110896026324276
6653036,Pentre CIW Voluntary Controlled,Wrexham,Primary,Voluntary controlled,47.0,-3.0607868427976435,52.95960357830542
6653042,Eyton Primary School,Wrexham,Primary,Voluntary controlled,48.0,-2.9885834414231143,52.99871052252878
6653054,BORDERBROOK SCHOOL,Wrexham,Primary,Voluntary controlled,12.0,-2.825252295209911,52.991299791018605
6653055,St Giles Controlled Primary School,Wrexham,Primary,Voluntary controlled,396.0,-2.993317545314872,53.042322209977314
6653301,BRONINGTON CHURCH IN WALES V.A,Wrexham,Primary,Voluntary aided,44.0,-2.76530074731087,52.95058803073292
6653305,Madras VA School,Wrexham,Primary,Voluntary aided,121.0,-2.8763031515970665,52.95430220065862
6653326,St Chad's Church in Wales Aided School,Wrexham,Primary,Voluntary aided,107.0,-2.813870590691649,52.95251568267752
6653334,St Mary's RC Primary,Wrexham,Primary,Voluntary aided,342.0,-2.997282042489758,53.04422518435367
6653337,Minera,Wrexham,Primary,Voluntary aided,91.0,-3.0865102345415245,53.0586162953368
6653338,All Saints Voluntary Aided Sch,Wrexham,Primary,Voluntary aided,366.0,-2.9774811452000454,53.08664186180131
6653341,St Mary's Church in Wales,Wrexham,Primary,Voluntary aided,213.0,-3.0374470796476363,52.986809392417086
6653342,Brymbo Aided (St. Mary's),Wrexham,Primary,Community,135.0,-3.0543308089370744,53.079303912711914
6653343,St Anne's Catholic Primary,Wrexham,Primary,Voluntary aided,169.0,-2.97083921789603,53.043957021444214
6653346,St Mary's Overton,Wrexham,Primary,Voluntary aided,147.0,-2.932241374846623,52.97158589435928
6653347,St Paul's Voluntary Aided,Wrexham,Primary,Voluntary aided,32.0,-2.896553537909879,53.0437851184204
6654029,Grango,Wrexham,Secondary,Community,580.0,-3.0560189532384348,53.01540171858128
6654032,YSGOL MORGAN LLWYD,Wrexham,Secondary,Community,930.0,-2.9696435453566714,53.050907438991494
6654033,Ysgol Bryn Alyn,Wrexham,Secondary,Community,701.0,-3.024125649254609,53.07502718625335
6654034,Darland High School,Wrexham,Secondary,Community,682.0,-2.9376913122194996,53.11312658322639
6654044,Ysgol Rhiwabon,Wrexham,Secondary,Community,509.0,-3.0482984215555313,52.988598043572985
6654048,Rhosnesni High School,Wrexham,Secondary,Community,1091.0,-2.9735106596261645,53.054941235027236
6654049,Ysgol Clywedog,Wrexham,Secondary,Community,801.0,-3.0114202363257925,53.04307046955704
6654603,St Joseph's Catholic and Anglican High,Wrexham,Secondary,Voluntary aided,748.0,-2.9967848694369823,53.03783145103391
6655401,THE MAELOR SCHOOL,Wrexham,Secondary,Foundation,787.0,-2.8686538919180045,52.95290206628766
6662002,ABERMULE PRIMARY SCHOOL,Powys,Primary,Community,79.0,-3.2363603454995387,52.54549991401773
6662003,ARDDLEEN C.P. SCHOOL,Powys,Primary,Community,111.0,-3.101015870291277,52.733851684535004
6662005,BERRIEW C.P. SCHOOL,Powys,Primary,Community,105.0,-3.205215573507204,52.601475030211084
6662008,CAERSWS C.P. SCHOOL,Powys,Primary,Community,84.0,-3.424568020003748,52.520544751731535
6662009,CARNO C.P. SCHOOL,Powys,Primary,Community,38.0,-3.5342010742806926,52.55675002398638
6662010,CARREGHOFA C.P. SCHOOL,Powys,Primary,Community,99.0,-3.097726816040383,52.778644441143776
6662018,LEIGHTON C.P. SCHOOL,Powys,Primary,Community,50.0,-3.1215755973238477,52.648525062596775
6662019,YSGOL LLANBRYNMAIR,Powys,Primary,Community,35.0,-3.628628329306955,52.610457458381475
6662020,LLANDINAM C.P. SCHOOL,Powys,Primary,Community,33.0,-3.4348423957081873,52.485894162578845
6662033,MEIFOD C.P. SCHOOL,Powys,Primary,Community,62.0,-3.2549190477439502,52.711483473226345
6662040,PENYGLODDFA C.P. SCHOOL,Powys,Primary,Community,270.0,-3.3168299376177175,52.51933452577037
6662041,PONTROBERT C.P. SCHOOL,Powys,Primary,Community,67.0,-3.3236446603093452,52.70307932342563
6662044,YSGOL DYFFRYN TRANNON,Powys,Primary,Community,98.0,-3.5155975250122338,52.505874470213655
6662049,GUILSFIELD C.P. SCHOOL,Powys,Primary,Community,145.0,-3.156586221332468,52.694826074705226
6662050,LLANIDLOES C.P. SCHOOL,Powys,Primary,Community,267.0,-3.544577417167692,52.44347655435052
6662051,BUTTINGTON TREWERN C.P. SCHOOL,Powys,Primary,Community,133.0,-3.0755448545988724,52.68798058846156
6662053,BRYNHAFREN C.P. SCHOOL,Powys,Primary,Community,34.0,-3.0059293258573083,52.73117277504353
6662054,CHURCHSTOKE C.P. SCHOOL,Powys,Primary,Community,38.0,-3.074279752264653,52.5382483147201
6662058,YSGOL GYNRADD GLANTWYMYN,Powys,Primary,Community,78.0,-3.7393972910168927,52.62485658181538
6662059,YSGOL PENNANT,Powys,Primary,Community,71.0,-3.3537707473419736,52.81145327912287
6662060,MAESYRHANDIR C.P. SCHOOL,Powys,Primary,Community,100.0,-3.327522949423766,52.5043404644739
6662062,TREOWEN C.P. SCHOOL,Powys,Primary,Community,91.0,-3.309305413493782,52.51138276353072
6662066,FRANKSBRIDGE C.P. SCHOOL,Powys,Primary,Community,37.0,-3.290374627502101,52.197142218898186
6662068,LLANBISTER C.P. SCHOOL,Powys,Primary,Community,58.0,-3.310555017180215,52.351318022071084
6662070,YSGOL CEFNLLYS,Powys,Primary,Community,198.0,-3.37244973849073,52.239443866894206
6662075,PRESTEIGNE C.P. SCHOOL,Powys,Primary,Community,173.0,-3.011439832020657,52.27172223632013
6662076,RADNOR VALLEY C.P. SCHOOL,Powys,Primary,Community,48.0,-3.1510835553743903,52.239430501833645
6662077,CROSSGATES C.P. SCHOOL,Powys,Primary,Community,145.0,-3.3355007146562268,52.275617725592305
6662084,YSGOL DOLAFON,Powys,Primary,Community,41.0,-3.6419029996163115,52.107463605635154
6662089,BUILTH WELLS C.P. SCHOOL,Powys,Primary,Community,238.0,-3.408872067127127,52.14712401367467
6662092,SENNYBRIDGE C.P. SCHOOL,Powys,Primary,Community,104.0,-3.569941663431841,51.94463381818683
6662113,CRICKHOWELL C.P. SCHOOL,Powys,Primary,Community,210.0,-3.13998451943608,51.86423263082752
6662116,HAY-ON-WYE C.P. SCHOOL,Powys,Primary,Community,185.0,-3.1268023103948903,52.07211030212963
6662117,LLANGYNIDR C.P. SCHOOL,Powys,Primary,Community,101.0,-3.2297056191748132,51.866515346856644
6662125,LLANFAES C.P. SCHOOL,Powys,Primary,Community,193.0,-3.398957196549622,51.943814215062964
6662127,YSGOL Y BANNAU,Powys,Primary,Community,94.0,-3.379275658939055,51.95249869104087
6662129,YSGOL RHIW BECHAN,Powys,Primary,Community,139.0,-3.333541958152269,52.57834384612596
6662146,LLANRHAEADR YM MOCHNANT C.P. SCHOOL,Powys,Primary,Community,84.0,-3.293706689775701,52.82235946648933
6662147,YSGOL BRO CYNLLAITH,Powys,Primary,Community,25.0,-3.1743859155347756,52.843957834031535
6662148,YSGOL DAFYDD LLWYD,Powys,Primary,Community,211.0,-3.3188329808640553,52.5084788163586
6662149,YSGOL Y CRIBARTH,Powys,Primary,Community,116.0,-3.717882830493238,51.800910038817655
6662150,YSGOL GOLWG Y CWM,Powys,Primary,Community,188.0,-3.7452115297632584,51.782702769012104
6662151,YSGOL BRO TAWE,Powys,Primary,Community,206.0,-3.771053040460912,51.766023316361824
6662152,YSGOL GYMRAEG DYFFRYN Y GLOWYR,Powys,Primary,Community,348.0,-3.7802799505693097,51.77431115478421
6662153,YSGOL Y MYNYDD DU ,Powys,Primary,Community,91.0,-3.2303862198788877,51.996800171601606
6662154,YSGOL GYMRAEG Y TRALLWNG,Powys,Primary,Community,114.0,-3.1512718237942687,52.66375200062687
6662155,YSGOL CALON Y DDERWEN,Powys,Primary,Community,259.0,-3.3187066386038375,52.51300407777545
6663000,LLANFECHAIN C.I.W. SCHOOL,Powys,Primary,Community,45.0,-3.20405693312194,52.77435870192525
6663002,MONTGOMERY C.I.W. SCHOOL,Powys,Primary,Community,108.0,-3.14566610895204,52.562437055150916
6663016,FORDEN C.I.W. SCHOOL,Powys,Primary,Community,56.0,-3.139776925655242,52.60185617006208
6663021,LLANDYSILIO C.I.W. SCHOOL,Powys,Primary,Community,55.0,-3.084036192000526,52.76244362483432
6663026,GLADESTRY C.I.W. SCHOOL,Powys,Primary,Voluntary controlled,34.0,-3.123630197319919,52.18945588414402
6663030,YSGOL TREFONNEN CHURCH IN WALES COMMUNITY PRIMARY,Powys,Primary,Voluntary controlled,203.0,-3.3741816991465634,52.24750595942433
6663031,NEWBRIDGE-ON-WYE CHURCH IN WALES SCHOOL,Powys,Primary,Community,104.0,-3.4396244303696237,52.212076808860324
6663033,CLYRO C.I.W. SCHOOL,Powys,Primary,Voluntary controlled,71.0,-3.1519474066523796,52.083363346241164
6663035,KNIGHTON CHURCH IN WALES PRIMARY SCHOOL,Powys,Primary,Community,168.0,-3.0426006289635037,52.341171149701715
6663036,RHAYADER C.I.W. SCHOOL,Powys,Primary,Community,221.0,-3.5133506710613314,52.30752571855283
6663037,LLANELWEDD CHURCH IN WALES PRIMARY SCHOOL,Powys,Primary,Voluntary controlled,94.0,-3.3963809260144378,52.156057379727166
6663050,LLANGORS C.I.W. SCHOOL,Powys,Primary,Community,141.0,-3.263213501908869,51.94072723201843
6663051,WELSHPOOL CHURCH IN WALES PRIMARY SCHOOL,Powys,Primary,Voluntary controlled,264.0,-3.142779842042507,52.65558862213355
6663301,ST. MICHAEL'S C.I.W. SCHOOL,Powys,Primary,Voluntary aided,79.0,-3.2559378010655005,52.50136112262183
6663303,LLANSANTFFRAID C.I.W.A.,Powys,Primary,Community,110.0,-3.154418424510332,52.77519383690735
6663317,ARCHDEACON GRIFFITHS C.I.W. PRIMARY SCHOOL,Powys,Primary,Voluntary aided,135.0,-3.2714566757701915,52.037616764049766
6663318,PRIORY CHURCH IN WALES SCHOOL,Powys,Primary,Voluntary aided,143.0,-3.3914224348646944,51.95230186871942
6663320,ST MARY`S R.C. (A) SCHOOL,Powys,Primary,Voluntary aided,61.0,-3.3234188109724094,52.51563711045278
6663322,LLANGATTOCK C.I.W. SCHOOL,Powys,Primary,Voluntary aided,111.0,-3.1481036137639946,51.85000569400501
6663323,YSGOL CWM BANWY,Powys,Primary,Community,46.0,-3.4720019148440424,52.69199013233846
6664002,LLANIDLOES HIGH SCHOOL,Powys,Secondary,Community,703.0,-3.545174852564934,52.442049451665675
6664011,Newtown High School,Powys,Secondary,Community,896.0,-3.3213412390693806,52.50749594360872
6664013,WELSHPOOL HIGH SCHOOL,Powys,Secondary,Community,816.0,-3.136710109724338,52.66557825185018
6664021,Ysgol Maesydderwen,Powys,Secondary,Community,513.0,-3.7675468402897554,51.76898845472971
6664022,BRECON HIGH SCHOOL,Powys,Secondary,Community,557.0,-3.384129529528143,51.951582135435366
6664023,Gwernyfed High School,Powys,Secondary,Community,505.0,-3.2023073681772822,52.028364861312966
6664024,Crickhowell High School,Powys,Secondary,Community,942.0,-3.1408843979939376,51.86099745782916
6664025,Ysgol Calon Cymru,Powys,Secondary,Community,948.0,-3.407349964325813,52.15122713259131
6665500,Ysgol Bro Hyddgen,Powys,Middle,Community,441.0,-3.8547180864963653,52.58888559759396
6665501,Ysgol Llanfyllin,Powys,Middle,Community,775.0,-3.268800470094857,52.762349058773246
6665502,Ysgol Bro Caereinion,Powys,Middle,Community,494.0,-3.3238789618429863,52.651348374432985
6672281,YSGOL GYMUNEDOL GYNRADD ABERAERON,Ceredigion,Primary,Community,229.0,-4.264342793863671,52.24107694663846
6672291,YSGOL GYMUNEDOL LLANARTH,Ceredigion,Primary,Community,66.0,-4.310516414388923,52.19224006965473
6672293,YSGOL GYMUNEDOL LLANNON,Ceredigion,Primary,Community,41.0,-4.175406506294886,52.28109785848485
6672295,YSGOL GYMUNEDOL CEI NEWYDD,Ceredigion,Primary,Community,72.0,-4.3586691964698,52.21102966057366
6672298,YSGOL GYMUNEDOL TALGARREG,Ceredigion,Primary,Community,36.0,-4.3006823565130805,52.134885196967936
6672299,YSGOL GYMRAEG ABERYSTWYTH,Ceredigion,Primary,Community,368.0,-4.070936446533019,52.410234563283794
6672303,YSGOL GYMUNEDOL COMINS COCH,Ceredigion,Primary,Community,133.0,-4.039298398463772,52.421089851196356
6672308,YSGOL GYMUNEDOL LLANFARIAN,Ceredigion,Primary,Community,41.0,-4.076812700791615,52.377267160366756
6672309,YSGOL GYMUNEDOL LLANFIHANGEL-Y-CREUDDYN,Ceredigion,Primary,Community,16.0,-3.962164649161961,52.365635925798586
6672310,YSGOL GYMUNEDOL LLANGWYRYFON,Ceredigion,Primary,Community,25.0,-4.056038307908554,52.31534500071365
6672311,YSGOL LLANILAR,Ceredigion,Primary,Community,106.0,-4.022013563476704,52.35788520614025
6672312,YSGOL GYMUNEDOL MYNACH,Ceredigion,Primary,Community,45.0,-3.857195038284737,52.37096570144909
6672313,YSGOL PENLLWYN,Ceredigion,Primary,Community,42.0,-3.9831607642443942,52.405374232537184
6672314,YSGOL GYMUNEDOL LLWYN YR EOS,Ceredigion,Primary,Community,242.0,-4.068482609333119,52.40021597726318
6672315,YSGOL GYMUNEDOL SYR JOHN RHYS,Ceredigion,Primary,Community,15.0,-3.8399902961775823,52.4121559991827
6672316,YSGOL GYMUNEDOL RHYDYPENNAU,Ceredigion,Primary,Community,194.0,-4.019560347179098,52.451342543668794
6672317,YSGOL GYMUNEDOL TALYBONT,Ceredigion,Primary,Community,57.0,-3.98095702068721,52.48770037070712
6672319,YSGOL GYMUNEDOL ABERPORTH,Ceredigion,Primary,Community,174.0,-4.548662804838189,52.13240979539427
6672323,YSGOL GYMUNEDOL LLECHRYD,Ceredigion,Primary,Community,54.0,-4.606655305611161,52.06635334744633
6672324,YSGOL GYMUNEDOL PENPARC,Ceredigion,Primary,Community,103.0,-4.594166638939001,52.105904486517396
6672353,YSGOL GYMUNEDOL PONTRHYDFENDIGAID,Ceredigion,Primary,Community,53.0,-3.860384946536247,52.2884960748559
6672361,YSGOL GYMUNEDOL PLASCRUG,Ceredigion,Primary,Community,441.0,-4.074962260687473,52.41017293502442
6672362,YSGOL CRAIG YR WYLFA,Ceredigion,Primary,Community,24.0,-4.053266871297964,52.4771453137237
6672363,YSGOL PENRHYNCOCH,Ceredigion,Primary,Community,115.0,-3.9962800172832322,52.43866308869544
6672366,YSGOL GYMUNEDOL Y DDERI,Ceredigion,Primary,Community,99.0,-4.038827718410284,52.15745212613905
6672367,YSGOL GYMUNEDOL CENARTH,Ceredigion,Primary,Community,89.0,-4.529308991725346,52.04831869584267
6672368,YSGOL GYNRADD ABERTEIFI,Ceredigion,Primary,Community,379.0,-4.656349824682438,52.08446988309137
6672369,YSGOL BRO SION CWILT,Ceredigion,Primary,Community,120.0,-4.3409729220256335,52.16732454661963
6672371,YSGOL GYNRADD T LLEW JONES,Ceredigion,Primary,Community,166.0,-4.442286733575337,52.13238176866267
6672372,YSGOL RHOS HELYG,Ceredigion,Primary,Community,55.0,-4.020023367180019,52.21964830264165
6673058,YSGOL WIRFODDOL MYFENYDD,Ceredigion,Primary,Voluntary controlled,84.0,-4.1400241104123365,52.30776567175885
6673061,YSGOL GYNRADD DYFFRYN CLEDLYN,Ceredigion,Primary,Voluntary controlled,107.0,-4.187867752235818,52.089581171726664
6673318,ST PADARN'S ROMAN CATHOLIC PRIMARY SCHOOL,Ceredigion,Primary,Voluntary aided,146.0,-4.074481223368104,52.41340341852968
6674042,GYFUN ABERAERON COMPREHENSIVE,Ceredigion,Secondary,Community,573.0,-4.255523774026179,52.23947911711597
6674044,Ysgol Uwchradd Aberteifi,Ceredigion,Secondary,Community,614.0,-4.655886145892798,52.08775637078676
6674047,Penglais School,Ceredigion,Secondary,Community,1120.0,-4.059402276135941,52.415768117778086
6674048,YSGOL GYFUN PENWEDDIG,Ceredigion,Secondary,Community,587.0,-4.067592693566912,52.40964841939186
6675500,Ysgol Bro Pedr,Ceredigion,Middle,Community,967.0,-4.082450291081525,52.111845313810186
6675501,Ysgol Henry Richard,Ceredigion,Middle,Community,387.0,-3.938142046772892,52.218526065209666
6675502,Ysgol Bro Teifi,Ceredigion,Middle,Community,861.0,-4.325039138537537,52.054317682083024
6682203,Sageston Community Primary School,Pembrokeshire,Primary,Community,116.0,-4.8168405394707206,51.69499396560271
6682209,Ysgol Gynradd Gymunedol Eglwyswrw,Pembrokeshire,Primary,Community,90.0,-4.709280229107766,52.01313639820526
6682212,Ysgol Gymunedol Wdig / Goodwick Community School,Pembrokeshire,Primary,Community,110.0,-5.001881584215469,52.0039779200669
6682214,Fenton Community Primary School,Pembrokeshire,Primary,Community,359.0,-4.97719971715457,51.79902602836111
6682220,Johnston Community Primary School,Pembrokeshire,Primary,Community,256.0,-4.98626386501914,51.75611606364062
6682222,Lamphey CP School,Pembrokeshire,Primary,Community,181.0,-4.86992630826833,51.66598919019518
6682223,Ysgol Gymunedol Brynconin,Pembrokeshire,Primary,Community,71.0,-4.728157568337572,51.858115714193346
6682228,Hook CP School,Pembrokeshire,Primary,Community,71.0,-4.9305609662809955,51.761867187314834
6682231,Ysgol Llanychllwydog,Pembrokeshire,Primary,Community,29.0,-4.866825306513423,51.96906020476168
6682233,Ysgol Gymunedol Maenclochog,Pembrokeshire,Primary,Community,98.0,-4.788993754617981,51.91337114354817
6682242,Narberth Community Primary School,Pembrokeshire,Primary,Community,281.0,-4.733366058598498,51.80167456017128
6682243,Ysgol Bro Ingli,Pembrokeshire,Primary,Community,104.0,-4.83145171539934,52.018570823480545
6682250,Puncheston Community Primary School,Pembrokeshire,Primary,Community,76.0,-4.901726611676341,51.93030584741624
6682253,Ysgol Llandudoch,Pembrokeshire,Primary,Community,77.0,-4.681305270216081,52.082906236402046
6682254,Wolfscastle Communty Primary School,Pembrokeshire,Primary,Community,50.0,-4.971233689649268,51.90075288415223
6682258,Saundersfoot Community Primary School,Pembrokeshire,Primary,Community,172.0,-4.700421029783381,51.71356729097761
6682260,Stepaside Community Primary School,Pembrokeshire,Primary,Community,119.0,-4.711416014159366,51.73254190368194
6682261,Templeton Community Primary School,Pembrokeshire,Primary,Community,126.0,-4.7344660272730215,51.776039395246066
6682266,Tavernspite Community Primary School,Pembrokeshire,Primary,Community,208.0,-4.639226789288792,51.7819229172599
6682270,Ysgol Gymunedol Croesgoch,Pembrokeshire,Primary,Community,108.0,-5.161941912750099,51.92930869683865
6682271,Broad Haven CP School,Pembrokeshire,Primary,Community,105.0,-5.100035321867724,51.77871488399647
6682273,Roch Community School,Pembrokeshire,Primary,Community,126.0,-5.091042869138386,51.85113821705715
6682384,Coastlands CP School,Pembrokeshire,Primary,Community,105.0,-5.134108364214602,51.72159671803657
6682385,Ysgol Clydau,Pembrokeshire,Primary,Community,35.0,-4.571793586692701,51.96648064711631
6682386,Pembroke Dock Community School,Pembrokeshire,Primary,Community,607.0,-4.935230964929452,51.690645129275445
6682387,Monkton Priory Community Primary  School,Pembrokeshire,Primary,Community,200.0,-4.927342994532801,51.67583132048024
6682388,Golden Grove CP School,Pembrokeshire,Primary,Community,261.0,-4.910364918104339,51.67230527614835
6682389,Ysgol Glannau Gwaun,Pembrokeshire,Primary,Community,254.0,-4.982000313499432,51.99439133179132
6682391,Prendergast Community Primary School,Pembrokeshire,Primary,Community,446.0,-4.95988036238029,51.8084806881712
6682392,Pennar CP,Pembrokeshire,Primary,Community,214.0,-4.951716219827229,51.68735364982414
6682393,Neyland Community School,Pembrokeshire,Primary,Community,291.0,-4.950061940621943,51.7111573468544
6682395,Ysgol Hafan Y Mor,Pembrokeshire,Primary,Community,236.0,-4.716752842062165,51.6754268103089
6682396,Milford Haven Community Primary School,Pembrokeshire,Primary,Community,524.0,-5.030854641022475,51.7157275878653
6682397,Waldo Williams Primary School,Pembrokeshire,Primary,Community,228.0,-4.9836675150192695,51.79570509025543
6683035,Cilgerran Church in Wales VC School,Pembrokeshire,Primary,Voluntary controlled,114.0,-4.637238021823591,52.055806275254966
6683036,Cosheston VC School,Pembrokeshire,Primary,Voluntary controlled,63.0,-4.895323166257675,51.69608971890674
6683040,Cleddau Reach VC School,Pembrokeshire,Primary,Voluntary controlled,231.0,-4.917853145195509,51.75231309255692
6683042,Manorbier Church in Wales VC School,Pembrokeshire,Primary,Voluntary controlled,25.0,-4.7943551706576715,51.65631003790759
6683050,Spittal Church in Wales VC School,Pembrokeshire,Primary,Voluntary aided,110.0,-4.9449888165641775,51.8691617586121
6683055,St Florence Church in Wales VC School,Pembrokeshire,Primary,Voluntary controlled,72.0,-4.777598923147896,51.676907564866575
6683058,Ysgol Ger y Llan,Pembrokeshire,Primary,Voluntary controlled,101.0,-4.998821565720501,51.92502577052363
6683059,Tenby VC,Pembrokeshire,Primary,Voluntary controlled,236.0,-4.715852886993452,51.67551526911498
6683060,Penrhyn Church in Wales VC School,Pembrokeshire,Primary,Voluntary controlled,72.0,-4.954815675730178,51.66386341499258
6683061,Gelliswick VC School,Pembrokeshire,Primary,Voluntary controlled,484.0,-5.055293468433824,51.7119736491779
6683311,Holy Name RC School,Pembrokeshire,Primary,Voluntary aided,126.0,-4.98352461057529,51.99659328215494
6683313,Mary Immaculate Catholic School,Pembrokeshire,Primary,Voluntary aided,213.0,-4.977425712825197,51.79497306513559
6683314,St Francis Catholic School,Pembrokeshire,Primary,Voluntary aided,141.0,-5.031170429807079,51.71828273852853
6683315,St Aidans Church in Wales VA School,Pembrokeshire,Primary,Voluntary aided,75.0,-4.8731646810339715,51.826834558486375
6683319,St Teilos RC School,Pembrokeshire,Primary,Voluntary aided,85.0,-4.704631862704461,51.67423180913172
6683320,St Marks Church in Wales VA School,Pembrokeshire,Primary,Voluntary aided,114.0,-4.969569519712735,51.789316926730365
6683321,St Oswalds Church in Wales VA School,Pembrokeshire,Primary,Voluntary aided,135.0,-4.774128657204865,51.72115718737581
6684031,Ysgol Bro Gwaun,Pembrokeshire,Secondary,Community,574.0,-4.988189424108624,51.99641196623342
6684035,Ysgol Greenhill School,Pembrokeshire,Secondary,Community,877.0,-4.713301412931048,51.67310537896941
6684038,Ysgol Harri Tudur / Henry Tudor School,Pembrokeshire,Secondary,Community,1152.0,-4.923173184104476,51.68535707237239
6684063,Milford Haven School,Pembrokeshire,Secondary,Community,1045.0,-5.023152529890951,51.724200700718136
6684512,Haverfordwest High VC School,Pembrokeshire,Secondary,Voluntary controlled,1699.0,-4.981451728242012,51.7975151509262
6685500,Ysgol Caer Elen,Pembrokeshire,Middle,Community,907.0,-4.959380507926741,51.81882913892138
6685501,Ysgol Bro Preseli,Pembrokeshire,Middle,Community,932.0,-4.6463572658061105,51.970070312841294
6685900,Ysgol Penrhyn Dewi,Pembrokeshire,Middle,Voluntary aided,606.0,-5.199812949876765,51.87594055496738
6692000,CEFNEITHIN,Carmarthenshire,Primary,Community,105.0,-4.0975978726143785,51.80437753378814
6692001,Ysgol Gynradd Gymraeg Drefach,Carmarthenshire,Primary,Community,45.0,-4.133107507197371,51.799170251001556
6692003,Ysgol Gymraeg Llechyfedach,Carmarthenshire,Primary,Community,101.0,-4.107454146989806,51.78743032578556
6692006,Y TYMBL,Carmarthenshire,Primary,Community,112.0,-4.120340911628926,51.78797186436644
6692007,GORSLAS,Carmarthenshire,Primary,Community,206.0,-4.0756331543590125,51.8030319552902
6692008,Ysgol Gynradd Gymraeg Cross Hands,Carmarthenshire,Primary,Community,127.0,-4.090956002642389,51.79720304351261
6692009,LLANGAIN,Carmarthenshire,Primary,Community,53.0,-4.348292647087022,51.81656904682113
6692014,PENIEL,Carmarthenshire,Primary,Community,112.0,-4.272459237131452,51.89400785773311
6692018,BANCFFOSFELEN,Carmarthenshire,Primary,Community,54.0,-4.193584343170135,51.78774254159681
6692019,GWYNFRYN,Carmarthenshire,Primary,Community,56.0,-4.224820184040921,51.76365308071469
6692020,CARWAY,Carmarthenshire,Primary,Community,59.0,-4.23153831821732,51.73676798768987
6692023,PONTIETS,Carmarthenshire,Primary,Community,24.0,-4.212743937754039,51.751997387199204
6692024,PONTHENRI,Carmarthenshire,Primary,Community,64.0,-4.203575988450274,51.760397962734636
6692034,BANCYFELIN,Carmarthenshire,Primary,Community,65.0,-4.4324227834236005,51.83707036493777
6692037,MEIDRIM,Carmarthenshire,Primary,Community,31.0,-4.478867073141933,51.85995714687417
6692042,SARON,Carmarthenshire,Primary,Community,220.0,-4.036244581929708,51.787723588551415
6692043,BETWS,Carmarthenshire,Primary,Community,83.0,-3.984730034959313,51.78713015111678
6692044,TY-CROES,Carmarthenshire,Primary,Community,199.0,-4.0224242735110325,51.77633514666468
6692050,PARCYRHUN,Carmarthenshire,Primary,Community,199.0,-3.9951695643328287,51.78811338470686
6692052,BLAENAU,Carmarthenshire,Primary,Community,39.0,-4.0231702694049805,51.80498984884651
6692057,LLANEDI,Carmarthenshire,Primary,Community,21.0,-4.051026899496128,51.74856541944603
6692061,FFAIRFACH,Carmarthenshire,Primary,Community,69.0,-3.9919388678612293,51.87531191687271
6692065,TALLEY,Carmarthenshire,Primary,Community,59.0,-3.9815027660984614,51.97385955456362
6692067,CWRT HENRI,Carmarthenshire,Primary,Community,35.0,-4.099888268653255,51.88698538754069
6692080,LLANGADOG,Carmarthenshire,Primary,Community,103.0,-3.878485951560439,51.938566998181095
6692084,RHYS PRICHARD,Carmarthenshire,Primary,Community,212.0,-3.7991952398411963,51.99778560440906
6692098,LLYS HYWEL,Carmarthenshire,Primary,Community,135.0,-4.610597983638062,51.81944364662443
6692104,BRYNSARON,Carmarthenshire,Primary,Community,51.0,-4.362553046787332,52.00370816259715
6692109,LLANPUMSAINT,Carmarthenshire,Primary,Community,33.0,-4.301028458001173,51.93733929030087
6692112,MYNYDDYGARREG,Carmarthenshire,Primary,Community,28.0,-4.277385521265375,51.74868466972169
6692114,JOHNSTOWN,Carmarthenshire,Primary,Community,443.0,-4.327798980009473,51.85105904891948
6692116,Y DDERWEN,Carmarthenshire,Primary,Community,358.0,-4.313743569107812,51.860976618271245
6692119,LLANMILOE,Carmarthenshire,Primary,Community,59.0,-4.525537538369886,51.75283810771715
6692120,BRYN,Carmarthenshire,Primary,Community,222.0,-4.110346019365202,51.68522496518679
6692121,BYNEA,Carmarthenshire,Primary,Community,202.0,-4.102822045983589,51.67531371574333
6692123,DAFEN,Carmarthenshire,Primary,Community,102.0,-4.137300603330383,51.690284308950744
6692128,PUM HEOL,Carmarthenshire,Primary,Community,77.0,-4.189752382622977,51.72823256886741
6692131,HENDY,Carmarthenshire,Primary,Community,187.0,-4.050260286722369,51.71436255274325
6692135,FFWRNES,Carmarthenshire,Primary,Community,468.0,-4.175822426648281,51.68942120630898
6692159,OLD ROAD,Carmarthenshire,Primary,Community,116.0,-4.16220598207021,51.68704059643861
6692166,LLANSTEFFAN,Carmarthenshire,Primary,Community,8.0,-4.389226595662345,51.77107659197268
6692167,LLANNON,Carmarthenshire,Primary,Community,91.0,-4.113734945389937,51.75864052538996
6692168,BRYNSIERFEL,Carmarthenshire,Primary,Community,206.0,-4.1178461716020065,51.68190501117854
6692169,BRYNAMAN,Carmarthenshire,Primary,Community,269.0,-3.861439465262087,51.81417266769514
6692171,MYRDDIN COMMUNITY PRIMARY SCHOOL,Carmarthenshire,Primary,Community,102.0,-4.31308354175872,51.861700023241184
6692173,LLANGUNNOR,Carmarthenshire,Primary,Community,318.0,-4.301386960382604,51.85023012842998
6692175,TRIMSARAN,Carmarthenshire,Primary,Community,194.0,-4.241148988467118,51.717871714498024
6692176,SWISS VALLEY,Carmarthenshire,Primary,Community,244.0,-4.1370364164482165,51.70586430734799
6692177,PARC Y TYWYN,Carmarthenshire,Primary,Community,267.0,-4.240119648037979,51.681847893878036
6692178,PEMBREY,Carmarthenshire,Primary,Community,210.0,-4.27298215315173,51.68511275012289
6692179,RHYDAMAN,Carmarthenshire,Primary,Community,288.0,-3.9862608912147297,51.79392043647795
6692180,BECA,Carmarthenshire,Primary,Community,46.0,-4.709561993412491,51.895957806124024
6692181,LLANDYBIE,Carmarthenshire,Primary,Community,201.0,-4.010404367572804,51.82060368453364
6692182,HAFODWENOG,Carmarthenshire,Primary,Community,42.0,-4.501700034114111,51.94595026073124
6692183,TEILO SANT,Carmarthenshire,Primary,Community,161.0,-3.99020133301622,51.8872829258477
6692184,LLANYBYDDER,Carmarthenshire,Primary,Community,58.0,-4.148679349765426,52.07239653638021
6692185,LLANDEILO,Carmarthenshire,Primary,Community,212.0,-3.990381990427462,51.8867673159974
6692187,CYNWYL ELFED,Carmarthenshire,Primary,Community,42.0,-4.368982237455346,51.9237516874731
6692188,HALFWAY,Carmarthenshire,Primary,Community,221.0,-4.137609069594795,51.68485614464225
6692189,PWLL,Carmarthenshire,Primary,Community,73.0,-4.205101378845094,51.68849098748253
6692190,PENYGAER,Carmarthenshire,Primary,Community,166.0,-4.147067102309246,51.68845148142917
6692192,Y CASTELL,Carmarthenshire,Primary,Community,218.0,-4.299715590619599,51.73793491224508
6692193,Ysgol Gymraeg Penygroes,Carmarthenshire,Primary,Community,166.0,-4.049557203282692,51.8008727937456
6692194,NANTGAREDIG,Carmarthenshire,Primary,Community,233.0,-4.190084634932804,51.87167190393818
6692370,GWENLLIAN,Carmarthenshire,Primary,Community,123.0,-4.310514505438799,51.7355377290907
6692371,DEWI SANT,Carmarthenshire,Primary,Community,445.0,-4.146415744212806,51.68875115466557
6692373,YSGOL GYNRADD PONTYBEREM,Carmarthenshire,Primary,Community,227.0,-4.175403884728514,51.77906098843565
6692374,BIGYN,Carmarthenshire,Primary,Community,183.0,-4.155388200612835,51.67746162344457
6692375,STEBONHEATH,Carmarthenshire,Primary,Community,276.0,-4.148605392725055,51.68157329054493
6692379,Y DDWYLAN,Carmarthenshire,Primary,Community,253.0,-4.472030059922088,52.03849201475961
6692380,RICHMOND PARK,Carmarthenshire,Primary,Community,217.0,-4.300778539456678,51.86050262831956
6692384,GRIFFITH JONES,Carmarthenshire,Primary,Community,297.0,-4.489501174900603,51.82363595524126
6692385,YSGOL Y FRO,Carmarthenshire,Primary,Community,15.0,-4.243574586785078,51.80367788065646
6692386,CARREG HIRFAEN,Carmarthenshire,Primary,Community,164.0,-4.062148655234255,52.09978027190197
6692387,CAE'R FELIN,Carmarthenshire,Primary,Community,104.0,-4.263730535770485,52.002691374133505
6692388,Y BEDOL,Carmarthenshire,Primary,Community,299.0,-3.9051323092263255,51.80510995431501
6692389,BRO BRYNACH,Carmarthenshire,Primary,Community,90.0,-4.594243416716723,51.87961939016002
6692390,BRYN TEG,Carmarthenshire,Primary,Community,249.0,-4.1175488556532525,51.68023046621068
6692391,Y FELIN,Carmarthenshire,Primary,Community,218.0,-4.140111258695614,51.69526897803561
6692392,BRO BANW,Carmarthenshire,Primary,Community,441.0,-3.979065144659308,51.795840281727905
6692393,MAES Y MORFA,Carmarthenshire,Primary,Community,188.0,-4.1453212455719814,51.670734890786896
6692394,BURRY PORT,Carmarthenshire,Primary,Community,190.0,-4.249145601313994,51.6864954553285
6692395,PEN RHOS,Carmarthenshire,Primary,Community,429.0,-4.162873380087742,51.674893336633154
6692396,YSGOL GYMRAEG LLANGENNECH,Carmarthenshire,Primary,Community,407.0,-4.078043025553869,51.70084409944616
6693000,ABERGWILI,Carmarthenshire,Primary,Voluntary controlled,35.0,-4.269199608931165,51.866763651070336
6693003,LAUGHARNE VCP SCHOOL,Carmarthenshire,Primary,Voluntary controlled,53.0,-4.467833940518946,51.76760809089617
6693004,LLANDDAROG,Carmarthenshire,Primary,Community,69.0,-4.170703872726541,51.82608881964267
6693013,FERRYSIDE,Carmarthenshire,Primary,Voluntary controlled,26.0,-4.3682587177849985,51.768713350537325
6693026,LLANLLWNI,Carmarthenshire,Primary,Community,37.0,-4.20619204461096,52.03135401207866
6693300,ST MARY'S (LLANELLI),Carmarthenshire,Primary,Voluntary aided,184.0,-4.13288207056357,51.687397093732876
6693301,ST MARY'S (CARMARTHEN),Carmarthenshire,Primary,Voluntary aided,32.0,-4.31994269717604,51.85725740507933
6693307,PENBOYR,Carmarthenshire,Primary,Voluntary aided,77.0,-4.4005256827882455,52.0189917324201
6693321,PENTIP,Carmarthenshire,Primary,Community,97.0,-4.166151032259418,51.684216125898985
6693322,MODEL,Carmarthenshire,Primary,Voluntary aided,491.0,-4.322768189986661,51.8585415260119
6694029,Ysgol Dyffryn Aman,Carmarthenshire,Secondary,Community,1547.0,-3.9857853805062207,51.795969718307724
6694050,Coedcae School,Carmarthenshire,Secondary,Community,846.0,-4.145795562324397,51.67904792719725
6694052,Ysgol Gyfun Y Strade,Carmarthenshire,Secondary,Community,1253.0,-4.182127534222104,51.686725994370946
6694053,Glan-y-Mor School,Carmarthenshire,Secondary,Community,580.0,-4.2546640931752835,51.686038890564205
6694054,Bryngwyn School,Carmarthenshire,Secondary,Community,1045.0,-4.1375651349416485,51.69436213936649
6694056,Ysgol Gyfun Gymraeg Bro Myrddin,Carmarthenshire,Secondary,Community,929.0,-4.308163298452308,51.835385298598425
6694060,Ysgol Gyfun Emlyn,Carmarthenshire,Secondary,Community,502.0,-4.470629291583825,52.03451068369268
6694063,Queen Elizabeth High School,Carmarthenshire,Secondary,Community,1289.0,-4.320623365996911,51.84630151755883
6694064,Ysgol Maes Y Gwendraeth,Carmarthenshire,Secondary,Community,1084.0,-4.0904399662215996,51.80297635509641
6694065,Ysgol Bro Dinefwr,Carmarthenshire,Secondary,Community,1092.0,-4.000185223849623,51.87491702975396
6694512,Dyffryn Taf,Carmarthenshire,Secondary,Voluntary controlled,890.0,-4.616334894020129,51.822032006765895
6694600,St John Lloyd Catholic Comprehensive School,Carmarthenshire,Secondary,Voluntary aided,465.0,-4.134307329479442,51.68693954899017
6702006,BRYNMILL SCHOOL,Swansea,Primary,Community,291.0,-3.9717457994304115,51.61324714145844
6702008,Cadle Primary School,Swansea,Primary,Community,302.0,-3.9841677827091924,51.64892303326284
6702014,Cwmrhydyceirw Primary School,Swansea,Primary,Community,530.0,-3.928930486597437,51.67886592108547
6702017,DANYGRAIG PRIMARY SCHOOL,Swansea,Primary,Community,252.0,-3.9161736799874807,51.62148459791899
6702021,GENDROS PRIMARY SCHOOL,Swansea,Primary,Community,293.0,-3.973060910041615,51.64056219724728
6702023,GLAIS PRIMARY SCHOOL,Swansea,Primary,Community,110.0,-3.8788750787789668,51.68846304928642
6702027,GRANGE PRIMARY SCHOOL,Swansea,Primary,Community,144.0,-4.004971029905292,51.58318854642433
6702032,HAFOD PRIMARY SCHOOL,Swansea,Primary,Community,254.0,-3.941449798779914,51.634057236048996
6702036,Ysgol Gymraeg  Lon Las,Swansea,Primary,Community,479.0,-3.898868487717936,51.66473305741941
6702040,MORRISTON PRIMARY SCHOOL,Swansea,Primary,Community,174.0,-3.9217116721783456,51.662789045613955
6702042,OYSTERMOUTH PRIMARY SCHOOL,Swansea,Primary,Community,222.0,-4.004070982425027,51.57585697907313
6702048,PENTRECHWYTH PRIMARY SCHOOL,Swansea,Primary,Community,151.0,-3.9207630025459683,51.639334432724375
6702051,PLASMARL PRIMARY SCHOOL,Swansea,Primary,Community,209.0,-3.9351296077599605,51.6488642180987
6702054,SKETTY PRIMARY SCHOOL,Swansea,Primary,Community,491.0,-3.9945195268625513,51.62563992882993
6702055,ST HELEN'S PRIMARY SCHOOL,Swansea,Primary,Community,270.0,-3.95424436705835,51.615707092628284
6702059,TERRACE ROAD PRIMARY SCHOOL,Swansea,Primary,Community,312.0,-3.9548078765390007,51.62344022767977
6702063,TOWNHILL PRIMARY SCHOOL,Swansea,Primary,Community,483.0,-3.962534082419307,51.62705214972825
6702065,WAUNARLWYDD PRIMARY SCHOOL,Swansea,Primary,Community,236.0,-4.02531939855629,51.639860930972404
6702067,WAUN WEN SCHOOL,Swansea,Primary,Community,201.0,-3.9454268149241645,51.63334042019073
6702069,CLWYD PRIMARY SCHOOL,Swansea,Primary,Community,395.0,-3.9663380092233185,51.644847516530085
6702071,YNYSTAWE PRIMARY SCHOOL,Swansea,Primary,Community,197.0,-3.907437063985034,51.68543075763346
6702073,CLASE PRIMARY SCHOOL,Swansea,Primary,Community,360.0,-3.9452624274698658,51.66404678430725
6702075,PORTMEAD PRIMARY SCHOOL,Swansea,Primary,Community,253.0,-3.972573959510101,51.649320047236415
6702076,MAYALS PRIMARY,Swansea,Primary,Community,239.0,-4.007504613464075,51.591544292616284
6702077,CWMGLAS PRIMARY SCHOOL,Swansea,Primary,Community,276.0,-3.9050441843600407,51.646694588750854
6702082,BLAENYMAES PRIMARY SCHOOL,Swansea,Primary,Community,209.0,-3.974583127295729,51.65596765997924
6702084,Trallwn Primary School,Swansea,Primary,Community,204.0,-3.8935007865677136,51.658274676240175
6702086,PARKLAND PRIMARY SCHOOL,Swansea,Primary,Community,620.0,-3.9987053579045515,51.61472444624117
6702092,Newton Primary School,Swansea,Primary,Community,204.0,-4.015002435941541,51.576326181587035
6702095,WHITESTONE PRIMARY,Swansea,Primary,Community,122.0,-4.018606732378936,51.58340434655894
6702096,HENDREFOILAN PRIMARY,Swansea,Primary,Community,249.0,-4.014968654754618,51.62225517842077
6702098,Y.G.G. BRYNYMOR,Swansea,Primary,Community,299.0,-3.969376733781865,51.61357468402146
6702105,Bishopston Primary School,Swansea,Primary,Community,309.0,-4.051070673583692,51.5832086998095
6702108,CASLLWCHWR PRIMARY SCHOOL,Swansea,Primary,Community,198.0,-4.0742944083058354,51.663816143442816
6702109,CILA PRIMARY SCHOOL,Swansea,Primary,Community,110.0,-4.030685370208229,51.61310527472404
6702120,CRWYS PRIMARY SCHOOL,Swansea,Primary,Community,137.0,-4.0645556888293495,51.62772075440415
6702157,LLANGYFELACH PRIMARY SCHOOL,Swansea,Primary,Community,244.0,-3.9556689707662382,51.67300118393551
6702159,LLANRHIDIAN PRIMARY,Swansea,Primary,Community,161.0,-4.173791864424436,51.606191802166556
6702167,PENCLAWDD PRIMARY SCHOOL,Swansea,Primary,Community,132.0,-4.110442044245843,51.641325702148826
6702172,PENGELLI PRIMARY,Swansea,Primary,Community,110.0,-4.036221093973679,51.68864555152492
6702174,PENLLERGAER PRIMARY SCHOOL,Swansea,Primary,Community,348.0,-4.001326753451802,51.674273055409266
6702176,PENYRHEOL PRIMARY SCHOOL,Swansea,Primary,Community,213.0,-4.046925000800597,51.67608575385747
6702186,PONTARDDULAIS PRIMARY SCHOOL,Swansea,Primary,Community,391.0,-4.028591959928263,51.712481721045194
6702189,Y.G.G. BRYNIAGO,Swansea,Primary,Community,198.0,-4.0326141678271,51.7130078361521
6702192,PONTLLIW PRIMARY,Swansea,Primary,Community,224.0,-4.010556126340474,51.69321912245955
6702211,TRE UCHAF PRIMARY SCHOOL,Swansea,Primary,Community,203.0,-4.059973253828178,51.66560604427277
6702212,Y.G.G. PONTYBRENIN,Swansea,Primary,Community,574.0,-4.041734207636574,51.66230068533602
6702215,CRAIGFELEN PRIMARY SCHOOL,Swansea,Primary,Community,183.0,-3.9044587098336203,51.6968453881945
6702216,PENNARD PRIMARY,Swansea,Primary,Community,167.0,-4.087469076932009,51.5751039992015
6702217,KNELSTON PRIMARY,Swansea,Primary,Community,75.0,-4.210285220721046,51.57893328333735
6702219,PEN-Y-FRO,Swansea,Primary,Community,189.0,-4.043525919771205,51.624995376642275
6702223,PONTYBRENIN PRIMARY SCHOOL,Swansea,Primary,Community,316.0,-4.043202527340621,51.66408263647705
6702225,TALYCOPA PRIMARY SCHOOL,Swansea,Primary,Community,222.0,-3.885054126898541,51.657310938277455
6702226,GLYNCOLLEN PRIMARY SCHOOL,Swansea,Primary,Community,198.0,-3.9191209501256923,51.68222794266964
6702229,YSGOL GYMRAEG Y LOGIN FACH,Swansea,Primary,Community,222.0,-4.011820070224796,51.64049775659716
6702231,Y.G.G. TIRDEUNAW,Swansea,Primary,Community,360.0,-3.959909199006472,51.64875470334982
6702232,Y.G.G. Gellionnen,Swansea,Primary,Community,187.0,-3.89378340650002,51.70144223668519
6702233,GORS COMMUNITY SCHOOL,Swansea,Primary,Community,317.0,-3.9813043281548346,51.63173659545717
6702234,SEA VIEW PRIMARY SCHOOL,Swansea,Primary,Community,236.0,-3.9490455715829533,51.62787043268766
6702235,Y.G.G. Llwynderw,Swansea,Primary,Community,312.0,-4.005823085523117,51.58418115120634
6702236,Birchgrove Primary,Swansea,Primary,Community,420.0,-3.874560532362555,51.66982802945357
6702237,DUNVANT Primary SCHOOL,Swansea,Primary,Community,351.0,-4.022740337841385,51.62250483443341
6702238,GWYROSYDD PRIMARY SCHOOL,Swansea,Primary,Community,405.0,-3.9504149695440933,51.650355766606815
6702239,St Thomas Community Primary School,Swansea,Primary,Community,420.0,-3.92669601473814,51.62383317073275
6702240,GOWERTON PRIMARY SCHOOL,Swansea,Primary,Community,342.0,-4.0503099993325415,51.65113526203886
6702241,Pentre'r Graig Primary School,Swansea,Primary,Community,300.0,-3.923755282970698,51.66871760916844
6702242,YGG TANYLAN,Swansea,Primary,Community,209.0,-3.9407955524113363,51.66410704579902
6702243,Burlais Primary School,Swansea,Primary,Community,496.0,-3.956835395984481,51.6379842979473
6702244,Clydach Primary School,Swansea,Primary,Community,150.0,-3.897138404748163,51.695848831746666
6702245,Ysgol Gymraeg Y Cwm,Swansea,Primary,Community,124.0,-3.912022416804534,51.64661709875103
6702246,Gorseinon Primary School,Swansea,Primary,Community,311.0,-4.040178941059874,51.66952173980344
6702247,Brynhyfryd Primary School,Swansea,Primary,Community,461.0,-3.944962857825841,51.643549039818566
6703303,ST. DAVID'S RC PRIMARY SCHOOL,Swansea,Primary,Voluntary aided,197.0,-4.004837621860766,51.58245343423992
6703305,ST ILLTYDS PRIMARY,Swansea,Primary,Voluntary aided,195.0,-3.9163556197854112,51.64140278635543
6703306,CHRISTCHURCH CHURCH IN WALES,Swansea,Primary,Voluntary aided,162.0,-3.955585906694734,51.61398516517815
6703308,ST JOSEPH'S R.C. PRIMARY,Swansea,Primary,Voluntary aided,245.0,-3.8811197691607258,51.69688885188566
6703309,St Josephs Cathedral Primary School,Swansea,Primary,Voluntary aided,503.0,-3.943573308746288,51.6316750634643
6704031,Cefn Hengoed,Swansea,Secondary,Community,906.0,-3.905021299380498,51.64467689057738
6704032,OLCHFA SCHOOL,Swansea,Secondary,Community,1907.0,-4.005413585965708,51.618791529452686
6704033,MORRISTON COMPREHENSIVE,Swansea,Secondary,Community,1055.0,-3.92665941404385,51.681690930073785
6704043,PENTREHAFOD SCHOOL,Swansea,Secondary,Community,1120.0,-3.940881586228487,51.63800576986146
6704044,BISHOP GORE SCHOOL,Swansea,Secondary,Community,1315.0,-3.988356875193478,51.615241963722035
6704062,Penyrheol Comprehensive School,Swansea,Secondary,Community,860.0,-4.041359462002429,51.67473728874337
6704063,Gowerton Comprehensive School,Swansea,Secondary,Community,1127.0,-4.036150867226216,51.64258711213067
6704069,BISHOPSTON COMPREHENSIVE,Swansea,Secondary,Community,1128.0,-4.049269240468061,51.5841227189947
6704072,Pontarddulais Comprehensive School,Swansea,Secondary,Community,848.0,-4.0338642544311005,51.717390333544905
6704074,Ysgol Gyfun Gwyr,Swansea,Secondary,Community,1127.0,-4.03917568097332,51.645897812414
6704075,BIRCHGROVE,Swansea,Secondary,Community,722.0,-3.8718342479292853,51.67104951860694
6704076,Dylan Thomas Community School,Swansea,Secondary,Community,695.0,-3.9837277916849567,51.63362904454202
6704078,Ysgol Gyfun Gymraeg Bryn Tawe,Swansea,Secondary,Community,873.0,-3.95982561123398,51.6510154493477
6704600,Bishop Vaughan School,Swansea,Secondary,Voluntary aided,1236.0,-3.9388887459436406,51.661751251742956
6712100,Alltwen Primary School,Neath Port Talbot,Primary,Community,213.0,-3.8444953806789055,51.717522463128205
6712101,Blaendulais Primary School,Neath Port Talbot,Primary,Community,93.0,-3.7108918042880363,51.76512507232909
6712106,Blaengwrach Primary School,Neath Port Talbot,Primary,Community,147.0,-3.6412383190585955,51.73380154462089
6712110,Blaenhonddan Primary School,Neath Port Talbot,Primary,Community,270.0,-3.814654712991208,51.677648271405026
6712119,Baglan Primary School,Neath Port Talbot,Primary,Community,270.0,-3.807587465959409,51.618938901946315
6712128,YGG Cwmllynfell,Neath Port Talbot,Primary,Community,60.0,-3.8196875148128577,51.79801125129239
6712129,Creunant Primary School,Neath Port Talbot,Primary,Community,124.0,-3.7474470277460252,51.73264736605432
6712134,Crymlyn Primary School,Neath Port Talbot,Primary,Community,132.0,-3.86346343976743,51.63024063203879
6712137,Cwmnedd Primary School,Neath Port Talbot,Primary,Community,172.0,-3.622844671621232,51.747086383315164
6712138,Cymer Afan Primary School,Neath Port Talbot,Primary,Community,92.0,-3.6531335966391745,51.65138465282091
6712140,Godre'rgraig Primary School,Neath Port Talbot,Primary,Community,102.0,-3.809764176183228,51.74648691461939
6712142,Eastern Primary School,Neath Port Talbot,Primary,Community,132.0,-3.767925505950097,51.5852465174414
6712144,Gnoll Primary School,Neath Port Talbot,Primary,Community,352.0,-3.800533530170863,51.658217649116466
6712148,Glyncorrwg Primary School,Neath Port Talbot,Primary,Community,91.0,-3.627204465279504,51.67933449917198
6712149,YGG Gwaun Cae Gurwen,Neath Port Talbot,Primary,Community,164.0,-3.8804339710515867,51.793700999379936
6712150,Catwg Primary School,Neath Port Talbot,Primary,Community,203.0,-3.796160933826614,51.67340955065118
6712155,Maesmarchog Community Primary School,Neath Port Talbot,Primary,Community,83.0,-3.664072738910395,51.77705531928543
6712158,YGG Rhosafan,Neath Port Talbot,Primary,Community,388.0,-3.821480100275612,51.5993636125136
6712161,Sandfields Primary School,Neath Port Talbot,Primary,Community,249.0,-3.7986486725313897,51.59563329133108
6712168,YGG Castell-nedd,Neath Port Talbot,Primary,Community,408.0,-3.7983861602589433,51.66167660505769
6712173,Croeserw Primary School,Neath Port Talbot,Primary,Community,137.0,-3.6354902610798843,51.6451484887817
6712175,Tywyn Primary School,Neath Port Talbot,Primary,Community,439.0,-3.8073183291722823,51.58998777088133
6712178,Llangiwg Primary School,Neath Port Talbot,Primary,Community,81.0,-3.8417402842879422,51.7273851763765
6712181,Tonnau Primary Community School,Neath Port Talbot,Primary,Community,206.0,-3.7772210738229117,51.67430922917017
6712187,Ynysfach Primary School,Neath Port Talbot,Primary,Community,149.0,-3.6943389584104356,51.708858394233616
6712191,Blaenbaglan Primary School,Neath Port Talbot,Primary,Community,267.0,-3.7968201043124084,51.62099262905475
6712200,Rhos Primary School,Neath Port Talbot,Primary,Community,147.0,-3.830492156103227,51.71347923222152
6712202,YGG Blaendulais,Neath Port Talbot,Primary,Community,101.0,-3.711651565317514,51.765671511215345
6712203,Rhydyfro Primary School,Neath Port Talbot,Primary,Community,147.0,-3.861454784995758,51.7335488069359
6712205,YGG Cwm Nedd,Neath Port Talbot,Primary,Community,143.0,-3.622326318897755,51.74676983272396
6712206,Tairgwaith Primary School,Neath Port Talbot,Primary,Community,89.0,-3.864298466043634,51.79170102909753
6712208,YGG Trebannws,Neath Port Talbot,Primary,Community,90.0,-3.86500816687674,51.710814052601805
6712218,YGG Pontardawe,Neath Port Talbot,Primary,Community,342.0,-3.853294223906625,51.72629523990032
6712221,Waunceirch Primary School,Neath Port Talbot,Primary,Community,187.0,-3.821352205105106,51.67225713443777
6712230,Cilffriw Primary School,Neath Port Talbot,Primary,Community,146.0,-3.7811390305641286,51.68127276099841
6712231,YGG Tyle'r Ynn,Neath Port Talbot,Primary,Community,292.0,-3.821565251676862,51.64404509889251
6712232,Coed Hirwaun Primary School,Neath Port Talbot,Primary,Community,155.0,-3.7045421044499762,51.54780549065814
6712233,Coedffranc Primary School,Neath Port Talbot,Primary,Community,408.0,-3.8430189893058446,51.66055278702229
6712234,Pen Afan Primary School,Neath Port Talbot,Primary,Community,95.0,-3.5998125869383366,51.65481200551628
6712235,Awel Y Mor Primary School,Neath Port Talbot,Primary,Community,354.0,-3.811401545589628,51.597550308972714
6712236,Crynallt Primary School,Neath Port Talbot,Primary,Community,389.0,-3.7850078682158497,51.652753668108055
6712237,Cwmafan Primary School,Neath Port Talbot,Primary,Community,409.0,-3.7632477030728957,51.614334995178744
6712238,Central Primary School,Neath Port Talbot,Primary,Community,408.0,-3.772384382649283,51.5892887292504
6712239,Abbey Primary School,Neath Port Talbot,Primary,Community,438.0,-3.834324479860983,51.66150725508355
6712240,Melin Primary School,Neath Port Talbot,Primary,Community,261.0,-3.812275715639522,51.65247975663604
6712241,Ysgol Carreg Hir,Neath Port Talbot,Primary,Community,387.0,-3.816631421031682,51.64391473641643
6713309,St Joseph's Catholic Primary School (Neath),Neath Port Talbot,Primary,Voluntary aided,121.0,-3.798878111228548,51.654385355602585
6713310,St Josephs Catholic Infant School,Neath Port Talbot,Primary,Voluntary aided,118.0,-3.7895046064520757,51.59514364166977
6713311,Bryncoch CIW Primary School,Neath Port Talbot,Primary,Voluntary aided,105.0,-3.818158647213019,51.68495870062116
6713313,Alderman Davies CIW Primary School,Neath Port Talbot,Primary,Voluntary aided,251.0,-3.8020236782973544,51.66225028468808
6713314,St Therese's Catholic Primary School,Neath Port Talbot,Primary,Voluntary aided,225.0,-3.815563585679326,51.598367233179005
6713316,St Josephs Catholic Junior School,Neath Port Talbot,Primary,Voluntary aided,166.0,-3.7963963420383324,51.600388762721224
6714064,Cefn Saeson Comprehensive School,Neath Port Talbot,Secondary,Community,849.0,-3.7754551402429817,51.650605516033565
6714065,Cwmtawe Community School,Neath Port Talbot,Secondary,Community,1047.0,-3.853270034521668,51.715792716424666
6714066,Llangatwg Community School,Neath Port Talbot,Secondary,Community,750.0,-3.785860007130813,51.678467427915436
6714067,Dwr Y Felin Comprehensive School,Neath Port Talbot,Secondary,Community,1097.0,-3.813087972572186,51.66594660050834
6714601,St Joseph's RC School and 6th Form Centre,Neath Port Talbot,Secondary,Voluntary aided,835.0,-3.794514214576724,51.599896007189066
6715500,Ysgol Bae Baglan,Neath Port Talbot,Middle,Community,1383.0,-3.819629897784859,51.610147151877385
6715501,Ysgol Gymraeg Ystalyfera Bro Dur,Neath Port Talbot,Middle,Community,1557.0,-3.782818850766574,51.76410974253541
6715502,Ysgol Cwm Brombil,Neath Port Talbot,Middle,Community,1439.0,-3.7519468876016684,51.5728790004761
6722046,Abercerdin Primary School,Bridgend,Primary,Community,144.0,-3.4795150192622666,51.59533857720704
6722051,Betws Primary School,Bridgend,Primary,Community,174.0,-3.5876448014600095,51.568135194493024
6722055,Blaengarw Primary,Bridgend,Primary,Community,157.0,-3.5875443474394917,51.62432054677164
6722086,Brynmenyn Primary,Bridgend,Primary,Community,411.0,-3.581790152107555,51.55169210940837
6722090,Bryntirion Infants,Bridgend,Primary,Community,147.0,-3.6028257538432342,51.50858574465379
6722103,CEFN CRIBWR PRIMARY SCHOOL,Bridgend,Primary,Community,156.0,-3.6492475092798156,51.531334138389454
6722109,Coety Primary,Bridgend,Primary,Community,482.0,-3.5636824206079676,51.52738738072333
6722117,Cwmfelin Primary School,Bridgend,Primary,Community,200.0,-3.6427090514913525,51.59351473360129
6722122,FFALDAU,Bridgend,Primary,Community,133.0,-3.5814661444085125,51.60980497426098
6722129,Garth Primary School,Bridgend,Primary,Community,191.0,-3.639486701163767,51.6003450089955
6722146,Coychurch Llangrallo Primary,Bridgend,Primary,Community,134.0,-3.5269617100092696,51.50790694252963
6722149,LLANGYNWYD PRIMARY SCHOOL,Bridgend,Primary,Community,92.0,-3.636137277035517,51.58662099391377
6722172,NANTYFFYLLON PRIMARY SCHOOL,Bridgend,Primary,Community,204.0,-3.6625917637726007,51.61963703435989
6722178,Nantymoel Primary School,Bridgend,Primary,Community,222.0,-3.537666746080979,51.61845404022216
6722185,Newton Primary,Bridgend,Primary,Community,169.0,-3.6939201822796197,51.48202909099939
6722194,NOTTAGE COUNTY PRIMARY,Bridgend,Primary,Community,326.0,-3.707135779774977,51.483427959798895
6722220,Pen-y-Bont Primary,Bridgend,Primary,Community,334.0,-3.5741517260203075,51.50906410910591
6722227,Pil Primary,Bridgend,Primary,Community,198.0,-3.6916594296764695,51.530425474417605
6722232,Plasnewydd Primary School,Bridgend,Primary,Community,176.0,-3.6591690201016474,51.610175646772284
6722256,Trelales Primary School,Bridgend,Primary,Community,181.0,-3.6235389277138537,51.50505664338611
6722259,Ysgol Cynwyd Sant,Bridgend,Primary,Community,271.0,-3.660698953742445,51.6036645449016
6722275,Tynyrheol Primary School,Bridgend,Primary,Community,60.0,-3.5678684455607943,51.57609517438748
6722279,CROESTY PRIMARY SCHOOL,Bridgend,Primary,Community,185.0,-3.5025035739559645,51.5191130833058
6722288,CORNELI PRIMARY,Bridgend,Primary,Community,251.0,-3.703782879625044,51.52130720167741
6722292,LLANGEWYDD JUNIOR SCHOOL,Bridgend,Primary,Community,348.0,-3.5989907561368777,51.51057646935103
6722296,Porthcawl Primary School,Bridgend,Primary,Community,183.0,-3.691506192088356,51.485886781254
6722298,YSGOL GYMRAEG BRO OGWR,Bridgend,Primary,Community,370.0,-3.5676358187197823,51.51318889961113
6722300,CEFN GLAS INFANTS,Bridgend,Primary,Community,205.0,-3.5919357628116737,51.513661835656315
6722301,WEST PARK PRIMARY,Bridgend,Primary,Community,395.0,-3.7070902284266007,51.49156195770151
6722304,Afon y Felin Primary School,Bridgend,Primary,Community,143.0,-3.703396803425312,51.52602478680663
6722342,Tondu Primary School,Bridgend,Primary,Community,199.0,-3.6008655249291217,51.54062481070585
6722358,YSGOL Y FERCH O'R SGER,Bridgend,Primary,Community,146.0,-3.70329242120406,51.52206968174541
6722363,Ysgol Gynradd Gymraeg Calon Y Cymoedd,Bridgend,Primary,Community,193.0,-3.5884570710932566,51.56860060284685
6722367,Maes Yr Haul Broadlands,Bridgend,Primary,Community,471.0,-3.6015996216958235,51.503109946444425
6722368,BRYNCETHIN PRIMARY,Bridgend,Primary,Community,237.0,-3.572359021907955,51.54248954684556
6722369,Ogmore Vale Primary School,Bridgend,Primary,Community,292.0,-3.542961982785632,51.60706924055359
6722370,Pencoed Primary School,Bridgend,Primary,Community,572.0,-3.495390687822428,51.52830078387801
6722371,Oldcastle Primary School,Bridgend,Primary,Community,413.0,-3.578703395412319,51.501879908612324
6722372,Brackla Primary School,Bridgend,Primary,Community,337.0,-3.563874613671389,51.50913903782795
6722373,Caerau Primary School,Bridgend,Primary,Community,404.0,-3.6530353859032623,51.63342530237176
6722374,Litchard Primary,Bridgend,Primary,Community,457.0,-3.5790333667813194,51.52322702188187
6722375,Tremains Primary School,Bridgend,Primary,Community,454.0,-3.5521733250332765,51.508650490909524
6722376,Mynydd Cynffig Primary,Bridgend,Primary,Community,428.0,-3.6774939045969655,51.532360053188
6723013,Penyfai Church in Wales,Bridgend,Primary,Voluntary controlled,237.0,-3.5977070260489783,51.52635903999815
6723311,ST. MARY`S & ST. PATRICK`S,Bridgend,Primary,Voluntary aided,209.0,-3.654249721843898,51.606201502226405
6723315,St. Robert's RC Primary,Bridgend,Primary,Voluntary aided,171.0,-3.5964021463471294,51.53580378479319
6723322,St Mary's R C Primary School,Bridgend,Primary,Voluntary aided,245.0,-3.586087774001592,51.50960465928664
6723323,Archdeacon John Lewis C in W,Bridgend,Primary,Voluntary aided,145.0,-3.5535907349441507,51.51209892866101
6724059,Cynffig Comprehensive,Bridgend,Secondary,Community,777.0,-3.678858662493461,51.52791631944473
6724068,Bryntirion Comprehensive.,Bridgend,Secondary,Community,1258.0,-3.5943776849243725,51.517144618380854
6724071,Maesteg Comprehensive School,Bridgend,Secondary,Community,1058.0,-3.652138324104527,51.61213216353608
6724076,PENCOED COMPREHENSIVE,Bridgend,Secondary,Community,882.0,-3.5016506882044993,51.51946202168037
6724078,Brynteg  School,Bridgend,Secondary,Community,1725.0,-3.5775857992725544,51.49793054712862
6724080,PORTHCAWL COMPREHENSIVE SCHOOL,Bridgend,Secondary,Community,1185.0,-3.7106451502700617,51.48017515359162
6724085,Ysgol Gyfun Gymraeg Llangynwyd,Bridgend,Secondary,Community,703.0,-3.633204524920193,51.5823343742612
6724086,Coleg Cymunedol Y Dderwen,Bridgend,Secondary,Community,1249.0,-3.587013071679989,51.54591009714288
6724601,Archbishop McGrath Catholic High School,Bridgend,Secondary,Voluntary aided,825.0,-3.5580981800110183,51.50794129078057
6732109,ALBERT PRIMARY SCHOOL,The Vale of Glamorgan,Primary,Community,439.0,-3.17245450683672,51.44147337591177
6732111,BARRY ISLAND PRIMARY SCHOOL,The Vale of Glamorgan,Primary,Community,235.0,-3.272271401261811,51.39553485920507
6732114,COGAN PRIMARY SCHOOL,The Vale of Glamorgan,Primary,Community,221.0,-3.1887040597615934,51.4427753861719
6732115,COLCOT PRIMARY SCHOOL,The Vale of Glamorgan,Primary,Community,283.0,-3.2755931317471685,51.42192651364536
6732117,FAIRFIELD PRIMARY SCHOOL,The Vale of Glamorgan,Primary,Community,266.0,-3.1839756334825275,51.44020658151084
6732118,GLADSTONE PRIMARY SCHOOL,The Vale of Glamorgan,Primary,Community,434.0,-3.274428403340203,51.406994336424304
6732120,High Street Primary School,The Vale of Glamorgan,Primary,Community,232.0,-3.27896055253049,51.40272864452517
6732122,HOLTON PRIMARY SCHOOL,The Vale of Glamorgan,Primary,Community,383.0,-3.262258754523592,51.4071165410046
6732124,JENNER PARK PRIMARY SCHOOL,The Vale of Glamorgan,Primary,Community,205.0,-3.2631341936988956,51.41209231929662
6732126,SOUTH POINT PRIMARY SCHOOL,The Vale of Glamorgan,Primary,Community,117.0,-3.364133228461239,51.422952480702136
6732127,LLANFAIR PRIMARY SCHOOL,The Vale of Glamorgan,Primary,Community,142.0,-3.4417660768727396,51.43829890749982
6732128,LLANGAN PRIMARY SCHOOL,The Vale of Glamorgan,Primary,Community,123.0,-3.485852797463445,51.486571823553355
6732131,PALMERSTON PRIMARY SCHOOL,The Vale of Glamorgan,Primary,Community,222.0,-3.239817899948623,51.41729408765983
6732133,RHWS COUNTY PRIMARY SCHOOL,The Vale of Glamorgan,Primary,Community,368.0,-3.3513374733472756,51.38849890065397
6732136,SULLY PRIMARY SCHOOL,The Vale of Glamorgan,Primary,Community,381.0,-3.2164729413478943,51.40463913184771
6732138,VICTORIA PRIMARY SCHOOL,The Vale of Glamorgan,Primary,Community,453.0,-3.1817508285930223,51.43686864162375
6732144,ST ATHAN PRIMARY SCHOOL,The Vale of Glamorgan,Primary,Community,212.0,-3.4111277276905665,51.40165996446562
6732146,ST ILLTYD PRIMARY SCHOOL,The Vale of Glamorgan,Primary,Community,348.0,-3.4842199430079663,51.41019869851038
6732148,EVENLODE PRIMARY SCHOOL,The Vale of Glamorgan,Primary,Community,501.0,-3.1811072180311397,51.42940916957406
6732149,LLANDOUGH COUNTY PRIMARY,The Vale of Glamorgan,Primary,Community,184.0,-3.197399858093793,51.450114246216984
6732151,Y BONT FAEN PRIMARY SCHOOL,The Vale of Glamorgan,Primary,Community,269.0,-3.4474012969643253,51.45953192247004
6732152,YSGOL PEN-Y-GARTH,The Vale of Glamorgan,Primary,Community,320.0,-3.1961721581138245,51.44113479852766
6732156,Ysgol Gymraeg Sant Baruc,The Vale of Glamorgan,Primary,Community,337.0,-3.279438872585103,51.39778980967557
6732163,OAK FIELD PRIMARY AND NURSERY SCHOOL,The Vale of Glamorgan,Primary,Community,156.0,-3.268857021977996,51.41602890718277
6732165,YSGOL IOLO MORGANWG,The Vale of Glamorgan,Primary,Community,195.0,-3.4453382031912194,51.45892792840186
6732178,YSGOL GYMRAEG SANT CURIG,The Vale of Glamorgan,Primary,Community,433.0,-3.278483361888828,51.40599501960623
6732179,YSGOL GYMRAEG GWAUN Y NANT,The Vale of Glamorgan,Primary,Community,209.0,-3.268857021977996,51.41602890718277
6732181,CADOXTON PRIMARY SCHOOL,The Vale of Glamorgan,Primary,Community,460.0,-3.253190534973504,51.41412330450341
6732182,ROMILLY PRIMARY SCHOOL,The Vale of Glamorgan,Primary,Community,684.0,-3.2873656565525167,51.40146285206211
6732184,Ysgol Gymraeg Dewi Sant,The Vale of Glamorgan,Primary,Community,229.0,-3.475088648283904,51.40701160432374
6732185,DINAS POWYS PRIMARY SCHOOL,The Vale of Glamorgan,Primary,Community,460.0,-3.212083718727476,51.43345400428802
6732186,Ysgol Y Ddraig,The Vale of Glamorgan,Primary,Community,255.0,-3.475988162027189,51.404097212040384
6733037,ST NICHOLAS C/W PRIMARY SCHOOL,The Vale of Glamorgan,Primary,Voluntary controlled,152.0,-3.3126036532761085,51.46087269915814
6733047,PETERSTON-SUPER-ELY PRIMARY,The Vale of Glamorgan,Primary,Voluntary controlled,136.0,-3.3197448686490425,51.48122584874419
6733057,GWENFO C/W PRIMARY SCHOOL,The Vale of Glamorgan,Primary,Voluntary controlled,233.0,-3.2644143158557366,51.44905762575266
6733320,St Brides C W Primary School,The Vale of Glamorgan,Primary,Voluntary aided,220.0,-3.593365571529567,51.460875825816345
6733321,Wick and Marcross C/W Primary,The Vale of Glamorgan,Primary,Voluntary aided,144.0,-3.549619244114549,51.43765322291077
6733363,PENDOYLAN C/W PRIMARY SCHOOL,The Vale of Glamorgan,Primary,Voluntary aided,222.0,-3.3560759315383515,51.48209710395108
